{"items":[
    {"id":66,"catid":15,"lat":23.207355,"lng":77.457809,"title":" All India Institute of Medical Sciences (AIIMS), Bhopal","cutDescription":"All India Institute of Medical Sciences (AIIMS), AIIMS Campus Rd, Saket Nagar, Habib Ganj, Bhopal,...","description":"All India Institute of Medical Sciences (AIIMS), AIIMS Campus Rd, Saket Nagar, Habib Ganj, Bhopal, Madhya Pradesh 462026","street":"AIIMS Campus Rd, AIIMS Campus, Saket Nagar, Habib Ganj","city":"Bhopal","zip":"462026","country":"India","state":"Madhya Pradesh ","address":"AIIMS Campus Rd, AIIMS Campus, Saket Nagar, Habib Ganj, 462026 Bhopal, Madhya Pradesh , India","date":"2020-03-23 03:54:04","readmore":"\/index.php\/testing-facilities\/15-government-laboratories\/66-all-india-institute-of-medical-sciences-aiims-bhopal","multimedia":""},
    {"id":117,"catid":16,"lat":12.924607,"lng":79.132622,"title":" Christian Medical College, Vellore","cutDescription":"Department of Clinical Virology, Christian Medical College, 9th Floor, ASHA Building, IDA Scudder...","description":"Department of Clinical Virology, Christian Medical College, 9th Floor, ASHA Building, IDA Scudder Road, Christian Medical College, Vellore, Tamil Nadu, India Pin 632004","street":"9th Floor, ASHA Building, IDA Scudder Road","city":"Vellore","zip":"632004","country":"India","state":"Tamil Nadu","address":"9th Floor, ASHA Building, IDA Scudder Road, 632004 Vellore, Tamil Nadu, India","date":"2020-03-23 08:07:39","readmore":"\/index.php\/testing-facilities\/16-private-laboratories\/117-christian-medical-college-vellore","multimedia":""},
    {"id":122,"catid":15,"lat":28.625759,"lng":77.198448,"title":" Ram Manohar Lohia Hospital, New Delhi","cutDescription":" Ram Manohar Lohia Hospital, Type III, President's Estate, New Delhi, Delhi 110001","description":" Ram Manohar Lohia Hospital, Type III, President's Estate, New Delhi, Delhi 110001","street":" Type III, President's Estate","city":"New Delhi","zip":"110001","country":"India","state":"Delhi","address":" Type III, President's Estate, 110001 New Delhi, Delhi, India","date":"2020-03-23 09:07:28","readmore":"\/index.php\/testing-facilities\/15-government-laboratories\/122-ram-manohar-lohia-hospital-new-delhi","multimedia":""},
    {"id":93,"catid":15,"lat":8.711757,"lng":77.748627,"title":" Tirunelveli Medical College, Tirunelveli","cutDescription":"Tirunelveli Medical College, 3, High Ground Rd, Palayamkottai, Tirunelveli, Tamil Nadu 627011","description":"Tirunelveli Medical College, 3, High Ground Rd, Palayamkottai, Tirunelveli, Tamil Nadu 627011","street":" 3, High Ground Rd, Palayamkottai","city":"Tirunelveli","zip":"627011","country":"India","state":"Tamil Nadu","address":" 3, High Ground Rd, Palayamkottai, 627011 Tirunelveli, Tamil Nadu, India","date":"2020-03-23 05:49:35","readmore":"\/index.php\/testing-facilities\/15-government-laboratories\/93-tirunelveli-medical-college-tirunelveli","multimedia":""},
    {"id":153,"catid":16,"lat":18.51881,"lng":73.82872,"title":"A.G Diagnostics Pvt Ltd,  Pune","cutDescription":"A.G Diagnostics Pvt Ltd, CTS No 809, F.P. 147, Nayantara Building, Bhandarkar Road, Pune,...","description":"A.G Diagnostics Pvt Ltd, CTS No 809, F.P. 147, Nayantara Building, Bhandarkar Road, Pune, Maharashtra 411004","street":" CTS No 809, F.P. 147, Nayantara Building","city":"Pune","zip":"411004","country":"India","state":"Maharashtra","address":" CTS No 809, F.P. 147, Nayantara Building, 411004 Pune, Maharashtra, India","date":"2020-03-24 08:26:48","readmore":"\/index.php\/testing-facilities\/16-private-laboratories\/153-a-g-diagnostics-pvt-ltd-pune","multimedia":""},
    {"id":31,"catid":15,"lat":21.2568,"lng":81.579193,"title":"All India Institute of Medical Science (AIIMS), Raipur","cutDescription":"All India Institute of Medical Science (AIIMS), Great Eastern Rd, AIIMS Campus, Tatibandh, Raipur,...","description":"All India Institute of Medical Science (AIIMS), Great Eastern Rd, AIIMS Campus, Tatibandh, Raipur, Chhattisgarh 492099","street":"Great Eastern Rd, AIIMS Campus, Tatibandh","city":"Raipur","zip":"492099","country":"India","state":"Chhattisgarh ","address":"Great Eastern Rd, AIIMS Campus, Tatibandh, 492099 Raipur, Chhattisgarh , India","date":"2020-03-22 20:26:47","readmore":"\/index.php\/testing-facilities\/15-government-laboratories\/31-all-india-institute-of-medical-science-aiims-raipur","multimedia":""},
    {"id":162,"catid":15,"lat":20.231129,"lng":85.775108,"title":"All India Institute of Medical Sciences (AIIMS), Bhubaneswar","cutDescription":"All India Institute of Medical Sciences (AIIMS), Near AIIMS hospital, Sijua, Patrapada,...","description":"All India Institute of Medical Sciences (AIIMS), Near AIIMS hospital, Sijua, Patrapada, Bhubaneswar, Odisha 751019","street":"near Aiims hospital, Sijua, Patrapada, ","city":"Bhubaneswar, ","zip":"751019","country":"India","state":"Odisha ","address":"near Aiims hospital, Sijua, Patrapada, , 751019 Bhubaneswar, , Odisha , India","date":"2020-03-24 14:29:06","readmore":"\/index.php\/testing-facilities\/15-government-laboratories\/162-all-india-institute-of-medical-sciences-aiims-bhubaneswar","multimedia":""},
    {"id":107,"catid":15,"lat":26.240667,"lng":73.004997,"title":"All India Institute of Medical Sciences (AIIMS), Jodhpur","cutDescription":"All India Institute of Medical Sciences (AIIMS), Basni Industrial Area, MIA 2nd Phase, Basni,...","description":"All India Institute of Medical Sciences (AIIMS), Basni Industrial Area, MIA 2nd Phase, Basni, Jodhpur, Rajasthan 342005","street":"Basni Industrial Area, MIA 2nd Phase, Basni, ","city":"Jodhpur","zip":"342005","country":"India","state":"Rajasthan","address":"Basni Industrial Area, MIA 2nd Phase, Basni, , 342005 Jodhpur, Rajasthan, India","date":"2020-03-23 07:12:01","readmore":"\/index.php\/testing-facilities\/15-government-laboratories\/107-all-india-institute-of-medical-sciences-aiims-jodhpur","multimedia":""},
    {"id":32,"catid":15,"lat":28.567045,"lng":77.209892,"title":"All India Institute of Medical Sciences (AIIMS), New Delhi","cutDescription":"All India Institute of Medical Sciences (AIIMS), Sri Aurobindo Marg, Ansari Nagar East, New Delhi,...","description":"All India Institute of Medical Sciences (AIIMS), Sri Aurobindo Marg, Ansari Nagar East, New Delhi, Delhi 110029","street":"Sri Aurobindo Marg, Ansari Nagar, Ansari Nagar East, ","city":"New Delhi,","zip":"110029","country":"India","state":"Delhi ","address":"Sri Aurobindo Marg, Ansari Nagar, Ansari Nagar East, , 110029 New Delhi,, Delhi , India","date":"2020-03-22 20:32:23","readmore":"\/index.php\/testing-facilities\/15-government-laboratories\/32-all-india-institute-of-medical-sciences-aiims-new-delhi","multimedia":""},
    {"id":34,"catid":15,"lat":30.078964,"lng":78.283882,"title":"All India Institute of Medical Sciences (AIIMS), Rishikesh","cutDescription":"All India Institute of Medical Sciences (AIIMS), Virbhadra Road Shivaji Nagar, near Barrage,...","description":"All India Institute of Medical Sciences (AIIMS), Virbhadra Road Shivaji Nagar, near Barrage, Sturida Colony, Rishikesh, Uttarakhand 249203","street":"Virbhadra Road Shivaji Nagar, near Barrage, Sturida Colony ","city":"Rishikesh","zip":"249203","country":"India","state":" Uttarakhand","address":"Virbhadra Road Shivaji Nagar, near Barrage, Sturida Colony , 249203 Rishikesh,  Uttarakhand, India","date":"2020-03-22 20:34:36","readmore":"\/index.php\/testing-facilities\/15-government-laboratories\/34-all-india-institute-of-medical-sciences-aiims-rishikesh","multimedia":""},
    {"id":184,"catid":16,"lat":17.4706,"lng":78.311401,"title":"AMERICAN Institute of Pathology and Laboratory Sciences Private Limited, Hyderabad","cutDescription":"AMERICAN Institute of Pathology and Laboratory Sciences Private Limited, Door No. 1-100\/CCH,...","description":"AMERICAN Institute of Pathology and Laboratory Sciences Private Limited, Door No. 1-100\/CCH, Second Floor, At Citizens Hospital, Nallagandla, Serilingampally, Hyderabad, Telangana","street":"Kanchi Gachibowli Rd, Nallagandla, Serilingampally","city":"Hyderabad","zip":"500019","country":"India","state":"Telangana ","address":"Kanchi Gachibowli Rd, Nallagandla, Serilingampally, 500019 Hyderabad, Telangana , India","date":"2020-03-27 08:01:22","readmore":"\/index.php\/testing-facilities\/16-private-laboratories\/184-american-institute-of-pathology-and-laboratory-sciences-private-limited-hyderabad","multimedia":""},
    {"id":167,"catid":16,"lat":22.574793,"lng":88.384064,"title":"Apollo Gleneagles Hospitals, Kolkata","cutDescription":"Apollo Gleneagles Hospitals, 58, Canal Circular Road, Kolkata, West Bengal 700054","description":"Apollo Gleneagles Hospitals, 58, Canal Circular Road, Kolkata, West Bengal 700054","street":"58, Canal Circular Road","city":"Kolkata","zip":"700054","country":"India","state":"West Bengal","address":"58, Canal Circular Road, 700054 Kolkata, West Bengal, India","date":"2020-03-25 06:50:29","readmore":"\/index.php\/testing-facilities\/16-private-laboratories\/167-apollo-gleneagles-hospitals-kolkata","multimedia":""},
    {"id":169,"catid":16,"lat":17.469124,"lng":78.48214,"title":"Apollo Health and Lifestyle Limited-Secunderabad, Diagnostics Laboratory, Hyderabad","cutDescription":"Apollo Health and Lifestyle Limited-Secunderabad, Diagnostics Laboratory, NOS, 140\/A, 140\/B,...","description":"Apollo Health and Lifestyle Limited-Secunderabad, Diagnostics Laboratory, NOS, 140\/A, 140\/B, 140\/C, 141\/A, 141\/B, 141\/C, Thokatta Village, Bowenpally, Secunderabad, Telangana, Hyderabad-500011","street":"NOS, 140\/A, 140\/B, 140\/C, 141\/A, 141\/B, 141\/C, Thokatta Village","city":"Secunderabad","zip":"500011","country":"India","state":"Telangana","address":"NOS, 140\/A, 140\/B, 140\/C, 141\/A, 141\/B, 141\/C, Thokatta Village, 500011 Secunderabad, Telangana, India","date":"2020-03-25 07:01:04","readmore":"\/index.php\/testing-facilities\/16-private-laboratories\/169-apollo-health-and-lifestyle-limited-secunderabad-diagnostics-laboratory-hyderabad","multimedia":""},
    {"id":118,"catid":16,"lat":13.046235,"lng":80.150368,"title":"Apollo Hospitals Enterprise Limited, Chennai","cutDescription":"Department of Laboratory Services, Apollo Hospitals Enterprise Limited, 21 Greams Lane, Off Greams...","description":"Department of Laboratory Services, Apollo Hospitals Enterprise Limited, 21 Greams Lane, Off Greams Road, Chennai Tamil Nadu Pin 600006","street":" 21 Greams Lane, Off Greams Road,","city":"Chennai","zip":"600006","country":"India","state":"Tamil Nadu","address":" 21 Greams Lane, Off Greams Road,, 600006 Chennai, Tamil Nadu, India","date":"2020-03-23 08:10:50","readmore":"\/index.php\/testing-facilities\/16-private-laboratories\/118-apollo-hospitals-enterprise-limited-chennai","multimedia":""},
    {"id":135,"catid":15,"lat":18.504044,"lng":73.887901,"title":"Armed Forces Medical College, Pune","cutDescription":"Armed Forces Medical College, Southern Command, Solapur Road, Wanowrie, near Race Course, Pune,...","description":"Armed Forces Medical College, Southern Command, Solapur Road, Wanowrie, near Race Course, Pune, Maharashtra 411040","street":" Southern Command, Solapur Road, Wanowrie, near Race Course","city":"Pune","zip":"411040","country":"India","state":"Maharashtra","address":" Southern Command, Solapur Road, Wanowrie, near Race Course, 411040 Pune, Maharashtra, India","date":"2020-03-23 10:32:47","readmore":"\/index.php\/testing-facilities\/15-government-laboratories\/135-armed-forces-medical-college-pune","multimedia":""},
    {"id":125,"catid":15,"lat":28.583654,"lng":77.155678,"title":"Army Hospital Research & Referral, New Delhi","cutDescription":"Army Hospital Research & Referral, Military Hospital Road, Near Subroto Park, Dhaula Kuan, New...","description":"Army Hospital Research & Referral, Military Hospital Road, Near Subroto Park, Dhaula Kuan, New Delhi, Delhi 110010","street":"Subroto Park,","city":"New Delhi","zip":"110010","country":"India","state":"Delhi","address":"Subroto Park,, 110010 New Delhi, Delhi, India","date":"2020-03-23 09:16:40","readmore":"\/index.php\/testing-facilities\/15-government-laboratories\/125-army-hospital-research-referral-new-delhi","multimedia":""},
    {"id":56,"catid":15,"lat":12.959349,"lng":77.574692,"title":"Bangalore Medical College & Research Institute, Bangaluru","cutDescription":"Bangalore Medical College & Research Institute, Krishna Rajendra Rd, Bengaluru, Karnataka 560002","description":"Bangalore Medical College & Research Institute, Krishna Rajendra Rd, Bengaluru, Karnataka 560002","street":"Fort, Krishna Rajendra Rd, ","city":"Bengaluru, ","zip":"560002","country":"India","state":"Karnataka ","address":"Fort, Krishna Rajendra Rd, , 560002 Bengaluru, , Karnataka , India","date":"2020-03-22 22:17:15","readmore":"\/index.php\/testing-facilities\/15-government-laboratories\/56-bangalore-medical-college-research-institute-bangaluru","multimedia":""},
    {"id":40,"catid":15,"lat":23.052471,"lng":72.602859,"title":"BJ Medical College, Ahmedabad ","cutDescription":"BJ Medical College, Asarwa,, Civil Hospital Campus, Ahmedabad, Gujarat 380016","description":"BJ Medical College, Asarwa,, Civil Hospital Campus, Ahmedabad, Gujarat 380016","street":"B j medical college","city":"Asarwa","zip":"380016","country":"India","state":"Gujarat ","address":"B j medical college, 380016 Asarwa, Gujarat , India","date":"2020-03-22 20:47:41","readmore":"\/index.php\/testing-facilities\/15-government-laboratories\/40-bj-medical-college-ahmedabad","multimedia":""},
    {"id":136,"catid":15,"lat":18.526237,"lng":73.868935,"title":"BJ Medical College, Pune","cutDescription":"BJ Medical College, Jai Prakash Narayan Road, Railway Station Rd, near Pune, Maharashtra 411001","description":"BJ Medical College, Jai Prakash Narayan Road, Railway Station Rd, near Pune, Maharashtra 411001","street":"Jai Prakash Narayan Road, Railway Station Rd","city":"Pune","zip":"411001","country":"India","state":"Maharashtra","address":"Jai Prakash Narayan Road, Railway Station Rd, 411001 Pune, Maharashtra, India","date":"2020-03-23 10:35:51","readmore":"\/index.php\/testing-facilities\/15-government-laboratories\/136-bj-medical-college-pune","multimedia":""},
    {"id":48,"catid":15,"lat":29.151688,"lng":76.808228,"title":"BPS Government Medical College for Women, Sonipat","cutDescription":"BPS Government Medical College for Women, Ganaur - Gohana Rd, Khanpur Kalan, Haryana 131305","description":"BPS Government Medical College for Women, Ganaur - Gohana Rd, Khanpur Kalan, Haryana 131305","street":"Ganaur - Gohana Rd","city":"Khanpur Kalan","zip":"131305","country":"India","state":"Haryana ","address":"Ganaur - Gohana Rd, 131305 Khanpur Kalan, Haryana , India","date":"2020-03-22 21:29:23","readmore":"\/index.php\/testing-facilities\/15-government-laboratories\/48-bps-government-medical-college-for-women-sonipat","multimedia":""},
    {"id":154,"catid":16,"lat":12.957604,"lng":77.564575,"title":"Cancyte Technologies Private Limited, Bengaluru","cutDescription":"Cancyte Technologies Private Limited, Bengaluru, Karnataka 560018","description":"Cancyte Technologies Private Limited, Bengaluru, Karnataka 560018","street":"","city":"Bengaluru","zip":"560018","country":"India","state":"Karnataka","address":", 560018 Bengaluru, Karnataka, India","date":"2020-03-24 08:36:59","readmore":"\/index.php\/testing-facilities\/16-private-laboratories\/154-cancyte-technologies-private-limited-bengaluru","multimedia":""},
    {"id":210,"catid":15,"lat":12.393007,"lng":75.091675,"title":"Central University of Kerala, Kasaragod","cutDescription":"Central University of Kerala, Tejaswini Hills, Periye (PO), Kasaragod (DT), Kerala - 671316","description":"Central University of Kerala, Tejaswini Hills, Periye (PO), Kasaragod (DT), Kerala - 671316","street":"Tejaswini Hills, Periye (PO)","city":"Kasaragod","zip":"671316","country":"India","state":"Kerala","address":"Tejaswini Hills, Periye (PO), 671316 Kasaragod, Kerala, India","date":"2020-03-30 11:54:55","readmore":"\/index.php\/testing-facilities\/15-government-laboratories\/210-central-university-of-kerala-kasaragod","multimedia":""},
    {"id":189,"catid":16,"lat":28.639034,"lng":77.101349,"title":"City x-Ray & Scan Clinic Pvt. Ltd., New Delhi ","cutDescription":"City X Ray & Scan Clinic Pvt. Ltd., Molecular Laboratory, Third Floor,City Imaging Building,...","description":"City X Ray & Scan Clinic Pvt. Ltd., Molecular Laboratory, Third Floor,City Imaging Building, 4B\/18, Tilak Nagar, Near haldiram, New Delhi 110018","street":"Molecular Laboratory, Third Floor,City Imaging Building, 4B\/18, Tilak Nagar","city":"New Delhi","zip":"110018","country":"India","state":"Delhi","address":"Molecular Laboratory, Third Floor,City Imaging Building, 4B\/18, Tilak Nagar, 110018 New Delhi, Delhi, India","date":"2020-03-27 11:16:22","readmore":"\/index.php\/testing-facilities\/16-private-laboratories\/189-city-x-ray-scan-clinic-pvt-ltd-new-delhi","multimedia":""},
    {"id":94,"catid":15,"lat":11.028704,"lng":77.021706,"title":"Coimbatore Medical College, Coimbatore","cutDescription":"Coimbatore Medical College, 1 A, SF No 498, Avinashi Rd, Peelamedu, Civil Aerodrome Post,...","description":"Coimbatore Medical College, 1 A, SF No 498, Avinashi Rd, Peelamedu, Civil Aerodrome Post, Coimbatore, Tamil Nadu 641018","street":"1 A, SF No 498, Avinashi Rd","city":"Peelamedu","zip":"641018","country":"India","state":"Tamil Nadu","address":"1 A, SF No 498, Avinashi Rd, 641018 Peelamedu, Tamil Nadu, India","date":"2020-03-23 05:51:47","readmore":"\/index.php\/testing-facilities\/15-government-laboratories\/94-coimbatore-medical-college-coimbatore","multimedia":""},
    {"id":128,"catid":15,"lat":12.964655,"lng":77.625938,"title":"Command Hospital (Air Force), Bengaluru","cutDescription":"Command Hospital (Air Force) , Cambridge Rd, Cambridge Layout, Jogupalya, Bengaluru, Karnataka...","description":"Command Hospital (Air Force) , Cambridge Rd, Cambridge Layout, Jogupalya, Bengaluru, Karnataka 560007","street":"Cambridge Rd, Cambridge Layout","city":"Bengaluru","zip":"560007","country":"India","state":"Karnataka","address":"Cambridge Rd, Cambridge Layout, 560007 Bengaluru, Karnataka, India","date":"2020-03-23 09:30:37","readmore":"\/index.php\/testing-facilities\/15-government-laboratories\/128-command-hospital-air-force-bengaluru","multimedia":""},
    {"id":140,"catid":15,"lat":26.817455,"lng":80.938622,"title":"Command Hospital, Lucknow","cutDescription":"Command Hospital, Lucknow, Uttar Pradesh 226002","description":"Command Hospital, Lucknow, Uttar Pradesh 226002","street":"Lucknow","city":"Lucknow","zip":"226002","country":"India","state":"Uttar Pradesh","address":"Lucknow, 226002 Lucknow, Uttar Pradesh, India","date":"2020-03-23 11:25:29","readmore":"\/index.php\/testing-facilities\/15-government-laboratories\/140-command-hospital-lucknow","multimedia":""},
    {"id":177,"catid":16,"lat":28.509289,"lng":77.089455,"title":"CORE Diagnostics Pvt Ltd, Gurugram","cutDescription":"CORE Diagnostics Pvt Ltd, 406, Udyog Vihar III, Sector 20, Gurugram, Haryana 122016","description":"CORE Diagnostics Pvt Ltd, 406, Udyog Vihar III, Sector 20, Gurugram, Haryana 122016","street":"406, Udyog Vihar III, Sector 20","city":"Gurugram","zip":"122016","country":"India","state":"Haryana","address":"406, Udyog Vihar III, Sector 20, 122016 Gurugram, Haryana, India","date":"2020-03-27 05:37:22","readmore":"\/index.php\/testing-facilities\/16-private-laboratories\/177-core-diagnostics-pvt-ltd-gurugram","multimedia":""},
    {"id":18,"catid":15,"lat":26.133432,"lng":85.899246,"title":"Darbhanga Medical College, Darbhanga","cutDescription":"Darbhanga Medical College, DMCH Rd, Allalpatti, Laheriasarai, Darbhanga, Bihar 846003","description":"Darbhanga Medical College, DMCH Rd, Allalpatti, Laheriasarai, Darbhanga, Bihar 846003","street":"DMCH Rd, Allalpatti, Laheriasarai","city":"Darbhanga","zip":"846003","country":"India","state":"Bihar","address":"DMCH Rd, Allalpatti, Laheriasarai, 846003 Darbhanga, Bihar, India","date":"2020-03-22 19:44:42","readmore":"\/index.php\/testing-facilities\/15-government-laboratories\/18-darbhanga-medical-college-darbhanga","multimedia":""},
    {"id":178,"catid":16,"lat":9.963544,"lng":76.295296,"title":"DDRC SRL Diagnostics Pvt Ltd, Ernakulam","cutDescription":"DDRC SRL Diagnostics Pvt Ltd, TOWER,G-131, Panampilly Nagar, Ernakulam, Kerala 682036","description":"DDRC SRL Diagnostics Pvt Ltd, TOWER,G-131, Panampilly Nagar, Ernakulam, Kerala 682036","street":"DDRC SRL TOWER,G-131, Panampilly Nagar","city":"Ernakulam","zip":"682036","country":"India","state":"Kerala ","address":"DDRC SRL TOWER,G-131, Panampilly Nagar, 682036 Ernakulam, Kerala , India","date":"2020-03-27 05:48:12","readmore":"\/index.php\/testing-facilities\/16-private-laboratories\/178-ddrc-srl-diagnostics-pvt-ltd-ernakulam","multimedia":""},
    {"id":198,"catid":18,"lat":26.221937,"lng":78.177666,"title":"Defence Research & Development Establishment (DRDE), Gwalior","cutDescription":"Defence Research & Development Organisation, Jhansi Road, Gwalior-474002, Madhya Pradesh","description":"Defence Research & Development Organisation, Jhansi Road, Gwalior-474002, Madhya Pradesh","street":"Jhansi Road","city":"Gwalior","zip":"474002","country":"India","state":"Madhya Pradesh","address":"Jhansi Road, 474002 Gwalior, Madhya Pradesh, India","date":"2020-03-30 06:03:47","readmore":"\/index.php\/testing-facilities\/18-government-laboratories-not-supported-by-icmr\/198-defence-research-development-establishment-drde-gwalior","multimedia":""},
    {"id":185,"catid":16,"lat":22.577131,"lng":88.479652,"title":"Department of Laboratory Sciences, Tata Medical Center, Kolkata","cutDescription":"Department of Laboratory Sciences, Tata Medical Center, 14, MAR(E-W), DH Block(Newtown), Action...","description":"Department of Laboratory Sciences, Tata Medical Center, 14, MAR(E-W), DH Block(Newtown), Action Area I, Newtown, Kolkata, West Bengal 700160","street":"14, MAR(E-W), DH Block(Newtown), Action Area I, Newtown","city":"Kolkata","zip":"700160","country":"India","state":"West Bengal","address":"14, MAR(E-W), DH Block(Newtown), Action Area I, Newtown, 700160 Kolkata, West Bengal, India","date":"2020-03-27 08:08:39","readmore":"\/index.php\/testing-facilities\/16-private-laboratories\/185-department-of-laboratory-sciences-tata-medical-center-kolkata","multimedia":""},
    {"id":170,"catid":16,"lat":20.30575,"lng":85.831734,"title":"Department of Laboratory Services Apollo Hospitals, Bhubaneswar","cutDescription":"Department of Laboratory Services Apollo Hospitals, Plot no 251, Sainik School Rd, Unit 15,...","description":"Department of Laboratory Services Apollo Hospitals, Plot no 251, Sainik School Rd, Unit 15, Gajapati Nagar, Bhubaneswar, Odisha 751005","street":"plot no 251, Sainik School Rd, Unit 15, Gajapati Nagar","city":"Bhubaneswar","zip":"751005","country":"India","state":"Odisha ","address":"plot no 251, Sainik School Rd, Unit 15, Gajapati Nagar, 751005 Bhubaneswar, Odisha , India","date":"2020-03-26 07:46:31","readmore":"\/index.php\/testing-facilities\/16-private-laboratories\/170-department-of-laboratory-services-apollo-hospitals-bhubaneswar","multimedia":""},
    {"id":109,"catid":16,"lat":28.738857,"lng":77.134216,"title":"Dr Lal PathLabs, National Reference laboratory","cutDescription":"<span class=\"LrzXr\">National Reference laboratory, B7 Rd, Block E, Sector 18, Rohini, New Delhi, Delhi 110085<\/span>","description":"<span class=\"LrzXr\">National Reference laboratory, B7 Rd, Block E, Sector 18, Rohini, New Delhi, Delhi 110085<\/span>","street":"B7 Rd, Block E, Sector 18","city":"Rohini, New Delhi","zip":"110085","country":"India","state":"Delhi","address":"B7 Rd, Block E, Sector 18, 110085 Rohini, New Delhi, Delhi, India","date":"2020-03-23 07:31:13","readmore":"\/index.php\/testing-facilities\/16-private-laboratories\/109-dr-lal-pathlabs-national-reference-laboratory","multimedia":""},
    {"id":215,"catid":16,"lat":30.326824,"lng":78.047012,"title":"Dr. Ahuja\u2019s Pathlogy and Imaging Centre-Department of Laboratory Medicine, Dehradun","cutDescription":"7-B Astley Hall, Ugrasain Rd, Dehradun, Uttarakhand 248001","description":"7-B Astley Hall, Ugrasain Rd, Dehradun, Uttarakhand 248001","street":"7-B Astley Hall","city":"Dehradun","zip":"248001","country":"India","state":"Uttarakhand","address":"7-B Astley Hall, 248001 Dehradun, Uttarakhand, India","date":"2020-03-31 07:56:58","readmore":"\/index.php\/testing-facilities\/16-private-laboratories\/215-dr-ahuja-s-pathlogy-and-imaging-centre-department-of-laboratory-medicine-dehradun","multimedia":""},
    {"id":145,"catid":16,"lat":28.550137,"lng":77.201256,"title":"Dr. Dang\u2019s Lab, New Delhi","cutDescription":"Dr. Dang\u2019s Lab, C2\/1 SDA AURBINDO MARG, NEW DELHI 110016","description":"Dr. Dang\u2019s Lab, C2\/1 SDA AURBINDO MARG, NEW DELHI 110016","street":"C2\/1 SDA AURBINDO MARG","city":"New Delhi","zip":"110016","country":"India","state":"Delhi","address":"C2\/1 SDA AURBINDO MARG, 110016 New Delhi, Delhi, India","date":"2020-03-23 12:30:56","readmore":"\/index.php\/testing-facilities\/16-private-laboratories\/145-dr-dang-s-lab-new-delhi","multimedia":""},
    {"id":171,"catid":16,"lat":17.424494,"lng":78.450851,"title":"DR. REMEDIES LABS PRIVATE LIMITED, Hyderabad","cutDescription":"Titus Plaza, 1st Floor, Sharma Commercial Complex, Hyderabad, Telangana 500082","description":"Titus Plaza, 1st Floor, Sharma Commercial Complex, Hyderabad, Telangana 500082","street":"Titus Plaza, 1st Floor, Sharma Commercial Complex","city":"Hyderabad","zip":"500082","country":"India","state":"Telangana","address":"Titus Plaza, 1st Floor, Sharma Commercial Complex, 500082 Hyderabad, Telangana, India","date":"2020-03-26 07:51:06","readmore":"\/index.php\/testing-facilities\/16-private-laboratories\/171-dr-remedies-labs-private-limited-hyderabad","multimedia":""},
    {"id":99,"catid":15,"lat":26.269421,"lng":73.005219,"title":"Dr. Sampurnanand Medical College, Jodhpur","cutDescription":"<p>Dr. S.N. Medical College,<br \/>Jodhpur<\/p><p>Residency Road, Near Sriram Excellency Hotel, Sector-D, Shastri<\/p>...","description":"<p>Dr. S.N. Medical College,<br \/>Jodhpur<\/p><p>Residency Road, Near Sriram Excellency Hotel, Sector-D, Shastri Nagar, opposite Petrol Pump, Jodhpur, Rajasthan 342003<\/p>","street":"Residency Road, Near Sriram Excellency Hotel, Sector-D, Shastri Nagar, opposite Petrol Pump","city":"Jodhpur","zip":"342003","country":"India","state":"Rajasthan ","address":"Residency Road, Near Sriram Excellency Hotel, Sector-D, Shastri Nagar, opposite Petrol Pump, 342003 Jodhpur, Rajasthan , India","date":"2020-03-23 07:03:15","readmore":"\/index.php\/testing-facilities\/15-government-laboratories\/99-dr-sampurnanand-medical-college-jodhpur","multimedia":""},
    {"id":16,"catid":15,"lat":26.324448,"lng":90.984985,"title":"Fakhruddin Medical College, Barpeta","cutDescription":"Barpeta-Hospital-Jania Rd, Joti Gaon, Assam 781301","description":"Barpeta-Hospital-Jania Rd, Joti Gaon, Assam 781301","street":"Barpeta-Hospital-Jania Rd, Joti Gaon","city":"Barpeta","zip":"781301","country":"India","state":"Assam","address":"Barpeta-Hospital-Jania Rd, Joti Gaon, 781301 Barpeta, Assam, India","date":"2020-03-22 19:19:38","readmore":"\/index.php\/testing-facilities\/15-government-laboratories\/16-fakhruddin-medical-college-barpeta","multimedia":""},
    {"id":137,"catid":15,"lat":23.25993,"lng":77.388763,"title":"Gandhi Medical College, Bhopal","cutDescription":"Gandhi Medical College, Sultania Rd, near Hamidia Hospital, Royal Market, Bhopal, Madhya Pradesh...","description":"Gandhi Medical College, Sultania Rd, near Hamidia Hospital, Royal Market, Bhopal, Madhya Pradesh 462001","street":" Sultania Rd, near Hamidia Hospital, Royal Market","city":"Bhopal","zip":"462001","country":"India","state":"Madhya Pradesh","address":" Sultania Rd, near Hamidia Hospital, Royal Market, 462001 Bhopal, Madhya Pradesh, India","date":"2020-03-23 10:51:18","readmore":"\/index.php\/testing-facilities\/15-government-laboratories\/137-gandhi-medical-college-bhopal","multimedia":""},
    {"id":108,"catid":15,"lat":17.424665,"lng":78.502197,"title":"Gandhi Medical College, Secunderabad","cutDescription":"Gandhi Medical College, <span class=\"section-info-text\"><span class=\"widget-pane-link\"> Musheerabad, Padmarao Nagar, Secunderabad, Telangana 500003<\/span><\/span>","description":"Gandhi Medical College, <span class=\"section-info-text\"><span class=\"widget-pane-link\"> Musheerabad, Padmarao Nagar, Secunderabad, Telangana 500003<\/span><\/span>","street":" Musheerabad, Padmarao Nagar","city":"Secunderabad","zip":"500003","country":"India","state":"Telangana","address":" Musheerabad, Padmarao Nagar, 500003 Secunderabad, Telangana, India","date":"2020-03-23 07:13:44","readmore":"\/index.php\/testing-facilities\/15-government-laboratories\/108-gandhi-medical-college-secunderabad","multimedia":""},
    {"id":12,"catid":15,"lat":26.15424,"lng":91.770081,"title":"Gauhati Medical College, Guwahati ","cutDescription":"Guwahati Narakasur Hilltop, Bhangagarh, Guwahati, Assam 781032","description":"Guwahati Narakasur Hilltop, Bhangagarh, Guwahati, Assam 781032","street":"Narakasur Hilltop, Bhangagarh","city":"Guwahati","zip":"781032","country":"India","state":"Assam ","address":"Narakasur Hilltop, Bhangagarh, 781032 Guwahati, Assam , India","date":"2020-03-22 18:24:48","readmore":"\/index.php\/testing-facilities\/15-government-laboratories\/12-gauhati-medical-college-guwahati","multimedia":""},
    {"id":194,"catid":15,"lat":15.464311,"lng":73.858414,"title":"Goa Medical College and Hospital, Bambolim","cutDescription":"Bambolim, Tiswadi Goa India 403202","description":"Bambolim, Tiswadi Goa India 403202","street":"Bambolim","city":"Tiswadi","zip":"403202","country":"India","state":"Goa","address":"Bambolim, 403202 Tiswadi, Goa, India","date":"2020-03-29 08:27:55","readmore":"\/index.php\/testing-facilities\/15-government-laboratories\/194-goa-medical-college-and-hospital-bambolim","multimedia":""},
    {"id":187,"catid":15,"lat":10.798005,"lng":78.676613,"title":"Government Medical College","cutDescription":"K.A.P.Viswanatham Government Medical College, Periyamilaguparai, Colletor's office Road, Trichy,...","description":"K.A.P.Viswanatham Government Medical College, Periyamilaguparai, Colletor's office Road, Trichy, Tamil Nadu 620001","street":"Periyamilaguparai, Colletor's office Road","city":"Trichy","zip":"620001","country":"India","state":"Tamil Nadu","address":"Periyamilaguparai, Colletor's office Road, 620001 Trichy, Tamil Nadu, India","date":"2020-03-27 08:24:59","readmore":"\/index.php\/testing-facilities\/15-government-laboratories\/187-government-medical-college","multimedia":""},
    {"id":28,"catid":15,"lat":30.708832,"lng":76.778297,"title":"Government Medical College & Hospital, Chandigarh","cutDescription":"Chandi Path, Sector 32B, 32B, Sector 32, Chandigarh, 160047","description":"Chandi Path, Sector 32B, 32B, Sector 32, Chandigarh, 160047","street":"Chandi Path, Sector 32B, 32B, Sector 32","city":"Chandigarh","zip":"160047","country":"India","state":"Chandigarh","address":"Chandi Path, Sector 32B, 32B, Sector 32, 160047 Chandigarh, Chandigarh, India","date":"2020-03-22 20:12:32","readmore":"\/index.php\/testing-facilities\/15-government-laboratories\/28-government-medical-college-hospital-chandigarh","multimedia":""},
    {"id":73,"catid":15,"lat":16.837025,"lng":74.64521,"title":"Government Medical College And Hospital, Miraj","cutDescription":"Pandharpur Rd, Maji Sainik Vasahat, Miraj, Maharashtra 416410","description":"Pandharpur Rd, Maji Sainik Vasahat, Miraj, Maharashtra 416410","street":"Pandharpur Rd, Maji Sainik Vasahat,  ","city":"Miraj, ","zip":"416410","country":"India","state":"Maharashtra","address":"Pandharpur Rd, Maji Sainik Vasahat,  , 416410 Miraj, , Maharashtra, India","date":"2020-03-23 05:07:48","readmore":"\/index.php\/testing-facilities\/15-government-laboratories\/73-government-medical-college-and-hospital-miraj","multimedia":""},
    {"id":75,"catid":15,"lat":23.83131,"lng":91.261597,"title":"Government Medical College, Agartala","cutDescription":"79 Tilla, Agartala, Tripura 799006","description":"79 Tilla, Agartala, Tripura 799006","street":"79 Tilla","city":"Agartala","zip":"799006","country":"India","state":"Tripura","address":"79 Tilla, 799006 Agartala, Tripura, India","date":"2020-03-23 05:11:38","readmore":"\/index.php\/testing-facilities\/15-government-laboratories\/75-government-medical-college-agartala","multimedia":""},
    {"id":6,"catid":15,"lat":14.6712,"lng":77.592903,"title":"Government Medical College, Anantapur","cutDescription":"Government Medical College, Anantapur, Rahamat Nagar, Anantapur, Andhra Pradesh 515001","description":"Government Medical College, Anantapur, Rahamat Nagar, Anantapur, Andhra Pradesh 515001","street":"Rahamat Nagar","city":"Anantapur","zip":"515001","country":"India","state":"Andhra Pradesh ","address":"Rahamat Nagar, 515001 Anantapur, Andhra Pradesh , India","date":"2020-03-22 13:35:00","readmore":"\/index.php\/testing-facilities\/15-government-laboratories\/6-government-medical-college-anantapur","multimedia":""},
    {"id":46,"catid":15,"lat":21.768614,"lng":72.137009,"title":"Government Medical College, Bhavnagar Gujarat","cutDescription":"Near State Road Transport Corporation Bus Stand, Bhavnagar, Gujarat 364001","description":"Near State Road Transport Corporation Bus Stand, Bhavnagar, Gujarat 364001","street":"Near State Road Transport Corporation Bus Stand, ","city":"Bhavnagar","zip":"364001","country":"India","state":"Gujarat","address":"Near State Road Transport Corporation Bus Stand, , 364001 Bhavnagar, Gujarat, India","date":"2020-03-22 21:22:24","readmore":"\/index.php\/testing-facilities\/15-government-laboratories\/46-government-medical-college-bhavnagar-gujarat","multimedia":""},
    {"id":33,"catid":15,"lat":29.206326,"lng":79.518745,"title":"Government Medical College, Haldwani","cutDescription":"Rampur Rd, Rampur, Haldwani, Uttarakhand 263129","description":"Rampur Rd, Rampur, Haldwani, Uttarakhand 263129","street":"Rampur Rd, Rampur","city":"Haldwani","zip":"263129","country":"India","state":"Uttarakhand ","address":"Rampur Rd, Rampur, 263129 Haldwani, Uttarakhand , India","date":"2020-03-22 20:32:49","readmore":"\/index.php\/testing-facilities\/15-government-laboratories\/33-government-medical-college-haldwani","multimedia":""},
    {"id":62,"catid":15,"lat":11.27228,"lng":75.837196,"title":"Government Medical College, Kozhikode ","cutDescription":"17 Medical College Road Medical College Junction, Near Police Station, Kozhikode, Kerala 673008","description":"17 Medical College Road Medical College Junction, Near Police Station, Kozhikode, Kerala 673008","street":"17 Medical College Road Medical College Junction, ","city":"Near Police Station, Kozhikode,","zip":"673008","country":"India","state":" Kerala ","address":"17 Medical College Road Medical College Junction, , 673008 Near Police Station, Kozhikode,,  Kerala , India","date":"2020-03-22 22:43:21","readmore":"\/index.php\/testing-facilities\/15-government-laboratories\/62-government-medical-college-kozhikode","multimedia":""},
    {"id":90,"catid":15,"lat":30.328062,"lng":76.382942,"title":"Government Medical College, Patiala","cutDescription":"Sangrur Rd, New Lal Bagh Colony, Patiala, Punjab 147001","description":"Sangrur Rd, New Lal Bagh Colony, Patiala, Punjab 147001","street":"Sangrur Rd, New Lal Bagh Colony,","city":" Patiala","zip":"147001","country":"India","state":" Punjab","address":"Sangrur Rd, New Lal Bagh Colony,, 147001  Patiala,  Punjab, India","date":"2020-03-23 05:41:56","readmore":"\/index.php\/testing-facilities\/15-government-laboratories\/90-government-medical-college-patiala","multimedia":""},
    {"id":45,"catid":15,"lat":22.305006,"lng":70.798424,"title":"Government Medical College, Rajkot, Gujarat","cutDescription":"Pandit Dindayal Upadhyay Medical College, Sadar Civil Hospital Campus, Rajkot, Gujarat 360001","description":"Pandit Dindayal Upadhyay Medical College, Sadar Civil Hospital Campus, Rajkot, Gujarat 360001","street":"Sadar Civil Hospital Campus, ","city":" Rajkot","zip":"360001","country":"India","state":"Gujarat ","address":"Sadar Civil Hospital Campus, , 360001  Rajkot, Gujarat , India","date":"2020-03-22 21:19:14","readmore":"\/index.php\/testing-facilities\/15-government-laboratories\/45-government-medical-college-rajkot-gujarat","multimedia":""},
    {"id":43,"catid":15,"lat":21.178091,"lng":72.820244,"title":"Government Medical College, Surat","cutDescription":"Opp Income Tax Department Office, Majura Gate, Surat, Gujarat 395001","description":"Opp Income Tax Department Office, Majura Gate, Surat, Gujarat 395001","street":"Opp Income Tax Department Office, Majura Gate","city":"Surat","zip":"395001","country":"India","state":"Gujarat ","address":"Opp Income Tax Department Office, Majura Gate, 395001 Surat, Gujarat , India","date":"2020-03-22 21:07:07","readmore":"\/index.php\/testing-facilities\/15-government-laboratories\/43-government-medical-college-surat","multimedia":""},
    {"id":102,"catid":15,"lat":10.776112,"lng":79.602654,"title":"Government Medical College, Thiruvarur","cutDescription":"Government Medical College, <span class=\"section-info-text\"><span class=\"widget-pane-link\">Collector office Master Plan Complex, Collector Office Road,<\/span><\/span>...","description":"Government Medical College, <span class=\"section-info-text\"><span class=\"widget-pane-link\">Collector office Master Plan Complex, Collector Office Road, Thiruvarur, Tamil Nadu 610004<\/span><\/span>","street":" Collector Office Road","city":"Thiruvarur","zip":"610004","country":"India","state":"Tamil Nadu","address":" Collector Office Road, 610004 Thiruvarur, Tamil Nadu, India","date":"2020-03-23 07:06:52","readmore":"\/index.php\/testing-facilities\/15-government-laboratories\/102-government-medical-college-thiruvarur","multimedia":""},
    {"id":64,"catid":15,"lat":10.614176,"lng":76.195602,"title":"Government Medical College, Thrissur","cutDescription":"M. G. Kavu, Thrissur, Kerala 680596","description":"M. G. Kavu, Thrissur, Kerala 680596","street":"M. G. Kavu, ","city":"Thrissur, ","zip":"680596","country":"India","state":"Kerala ","address":"M. G. Kavu, , 680596 Thrissur, , Kerala , India","date":"2020-03-22 22:50:06","readmore":"\/index.php\/testing-facilities\/15-government-laboratories\/64-government-medical-college-thrissur","multimedia":""},
    {"id":63,"catid":15,"lat":8.524302,"lng":76.924255,"title":"Government Medical College, Trivandrum","cutDescription":"Ulloor - Akkulam Rd, near SAT hospital Medical College Junction, Chalakkuzhi, Thiruvananthapuram,...","description":"Ulloor - Akkulam Rd, near SAT hospital Medical College Junction, Chalakkuzhi, Thiruvananthapuram, Kerala 695011","street":"Ulloor - Akkulam Rd, near SAT hospital Medical College Junction, ","city":" Chalakkuzhi, Thiruvananthapuram,","zip":" 695011","country":"India","state":" Kerala","address":"Ulloor - Akkulam Rd, near SAT hospital Medical College Junction, ,  695011  Chalakkuzhi, Thiruvananthapuram,,  Kerala, India","date":"2020-03-22 22:46:55","readmore":"\/index.php\/testing-facilities\/15-government-laboratories\/63-government-medical-college-trivandrum","multimedia":""},
    {"id":42,"catid":15,"lat":22.304007,"lng":73.191803,"title":"Government Medical College, Vadodara","cutDescription":"Vinoba Bhave Rd, Anandpura, Vadodara, Gujarat 390001","description":"Vinoba Bhave Rd, Anandpura, Vadodara, Gujarat 390001","street":"Vinoba Bhave Rd, Anandpura","city":"Vadodara","zip":"390001","country":"India","state":"Gujarat ","address":"Vinoba Bhave Rd, Anandpura, 390001 Vadodara, Gujarat , India","date":"2020-03-22 20:59:10","readmore":"\/index.php\/testing-facilities\/15-government-laboratories\/42-government-medical-college-vadodara","multimedia":""},
    {"id":91,"catid":15,"lat":10.006198,"lng":77.551498,"title":"Government Theni  Medical College, Theni","cutDescription":"Govt. Theni Medical College, k. villakku, Tamil Nadu 625531","description":"Govt. Theni Medical College, k. villakku, Tamil Nadu 625531","street":"Govt. Theni Medical College","city":"Theni","zip":"625531","country":"India","state":"Tamil Nadu","address":"Govt. Theni Medical College, 625531 Theni, Tamil Nadu, India","date":"2020-03-23 05:42:14","readmore":"\/index.php\/testing-facilities\/15-government-laboratories\/91-government-theni-medical-college-theni","multimedia":""},
    {"id":100,"catid":15,"lat":11.994311,"lng":79.513016,"title":"Government Villupuram Medical College, Villupuram","cutDescription":"Government Villupuram Medical College, <span class=\"section-info-text\"><span class=\"widget-pane-link\">Mundiyampakkam, Villupuram, Tamil Nadu 605601<\/span><\/span>","description":"Government Villupuram Medical College, <span class=\"section-info-text\"><span class=\"widget-pane-link\">Mundiyampakkam, Villupuram, Tamil Nadu 605601<\/span><\/span>","street":"GST Road","city":"Villupuram","zip":"605601","country":"India","state":"Tamil Nadu","address":"GST Road, 605601 Villupuram, Tamil Nadu, India","date":"2020-03-23 07:04:46","readmore":"\/index.php\/testing-facilities\/15-government-laboratories\/100-government-villupuram-medical-college-villupuram","multimedia":""},
    {"id":77,"catid":15,"lat":19.889299,"lng":75.318611,"title":"Govt Medical College & Hospital Aurangabad","cutDescription":"University Road, Jubilee Park, Aurangabad, Maharashtra 431004","description":"University Road, Jubilee Park, Aurangabad, Maharashtra 431004","street":"University Road, Jubilee Park","city":" Aurangabad","zip":"431004","country":"India","state":"Maharashtra ","address":"University Road, Jubilee Park, 431004  Aurangabad, Maharashtra , India","date":"2020-03-23 05:19:15","readmore":"\/index.php\/testing-facilities\/15-government-laboratories\/77-govt-medical-college-hospital-aurangabad","multimedia":""},
    {"id":141,"catid":15,"lat":25.123581,"lng":75.827454,"title":"Govt. Medical College, Kota","cutDescription":"Govt. Medical College, Rangbari Rd, Sector - A, Rangbari, Kota, Rajasthan 324010","description":"Govt. Medical College, Rangbari Rd, Sector - A, Rangbari, Kota, Rajasthan 324010","street":"Rangbari Rd, Sector - A","city":"Kota","zip":"324010","country":"India","state":"Rajasthan","address":"Rangbari Rd, Sector - A, 324010 Kota, Rajasthan, India","date":"2020-03-23 12:16:06","readmore":"\/index.php\/testing-facilities\/15-government-laboratories\/141-govt-medical-college-kota","multimedia":""},
    {"id":161,"catid":15,"lat":18.96352,"lng":72.833588,"title":"Grant Medical College & Sir JJ Hospital, Mumbai","cutDescription":"J J Marg, Nagpada-Mumbai Central, J J Marg, Nagpada-Mumbai Central, Noor Baug, Mazgaon, Mumbai,...","description":"J J Marg, Nagpada-Mumbai Central, J J Marg, Nagpada-Mumbai Central, Noor Baug, Mazgaon, Mumbai, Maharashtra 400008","street":"J J Marg, Nagpada-Mumbai Central, J J Marg, Nagpada-Mumbai Central, Noor Baug, Mazgaon, ","city":"Mumbai, ","zip":"400008","country":"India","state":"Maharashtra ","address":"J J Marg, Nagpada-Mumbai Central, J J Marg, Nagpada-Mumbai Central, Noor Baug, Mazgaon, , 400008 Mumbai, , Maharashtra , India","date":"2020-03-24 14:24:13","readmore":"\/index.php\/testing-facilities\/15-government-laboratories\/161-grant-medical-college-sir-jj-hospital-mumbai","multimedia":""},
    {"id":61,"catid":15,"lat":17.328522,"lng":76.839897,"title":"Gulbarga Institute Of Medical Sciences, Gulbarga","cutDescription":"Sedam Rd,Veeresh Nagar Cross, behind MRMC, Gulbarga, Karnataka 585101","description":"Sedam Rd,Veeresh Nagar Cross, behind MRMC, Gulbarga, Karnataka 585101","street":"Sedam Rd,Veeresh Nagar Cross, behind MRMC, ","city":"Gulbarga, ","zip":"585101","country":"India","state":"Karnataka ","address":"Sedam Rd,Veeresh Nagar Cross, behind MRMC, , 585101 Gulbarga, , Karnataka , India","date":"2020-03-22 22:40:58","readmore":"\/index.php\/testing-facilities\/15-government-laboratories\/61-gulbarga-institute-of-medical-sciences-gulbarga","multimedia":""},
    {"id":195,"catid":15,"lat":19.002079,"lng":72.843765,"title":"Haffkine Institute, Mumbai","cutDescription":"Acharya Donde Marg, Parel,  Mumbai  400012, Maharashtra ","description":"Acharya Donde Marg, Parel,  Mumbai  400012, Maharashtra ","street":"Acharya Donde Marg, Parel","city":"Mumbai","zip":"400012","country":"India","state":"Maharashtra","address":"Acharya Donde Marg, Parel, 400012 Mumbai, Maharashtra, India","date":"2020-03-29 14:56:03","readmore":"\/index.php\/testing-facilities\/15-government-laboratories\/195-haffkine-institute-mumbai","multimedia":""},
    {"id":59,"catid":15,"lat":13.00489,"lng":76.102692,"title":"Hassan Institute of Medical Sciences, Hassan","cutDescription":"Shri panchamukhi medicals and clinic, opp. govt high school, Hassan, Karnataka 573201","description":"Shri panchamukhi medicals and clinic, opp. govt high school, Hassan, Karnataka 573201","street":"Shri panchamukhi medicals and clinic, opp. govt high school, ","city":"Hassan, ","zip":"573201","country":"India","state":"Karnataka ","address":"Shri panchamukhi medicals and clinic, opp. govt high school, , 573201 Hassan, , Karnataka , India","date":"2020-03-22 22:31:43","readmore":"\/index.php\/testing-facilities\/15-government-laboratories\/59-hassan-institute-of-medical-sciences-hassan","multimedia":""},
    {"id":165,"catid":15,"lat":26.812803,"lng":83.398865,"title":"ICMR- Regional Medical Research Centre, Gorakhpur","cutDescription":"Baba Raghav Das (BRD) Medical College Campus, Gorakhpur, Uttar Pradesh PIN-273013","description":"Baba Raghav Das (BRD) Medical College Campus, Gorakhpur, Uttar Pradesh PIN-273013","street":"Baba Raghav Das (BRD) Medical College Campus","city":"Gorakhpur","zip":"273013","country":"India","state":"Uttar Pradesh","address":"Baba Raghav Das (BRD) Medical College Campus, 273013 Gorakhpur, Uttar Pradesh, India","date":"2020-03-25 05:05:00","readmore":"\/index.php\/testing-facilities\/15-government-laboratories\/165-icmr-regional-medical-research-centre-gorakhpur","multimedia":""},
    {"id":166,"catid":16,"lat":19.110266,"lng":72.884895,"title":"iGenetic Diagnostics Pvt. Ltd., Mumbai","cutDescription":"1st Floor, krislon House, Off Marol Military Road, Andheri East, Mumbai Maharashtra 400072","description":"1st Floor, krislon House, Off Marol Military Road, Andheri East, Mumbai Maharashtra 400072","street":"Off Marol Military Road","city":" Andheri East","zip":"400072","country":"India","state":"Maharashtra","address":"Off Marol Military Road, 400072  Andheri East, Maharashtra, India","date":"2020-03-25 06:43:26","readmore":"\/index.php\/testing-facilities\/16-private-laboratories\/166-igenetic-diagnostics-pvt-ltd-mumbai","multimedia":""},
    {"id":72,"catid":15,"lat":21.153418,"lng":79.091782,"title":"Indira Gandhi Government Medical College & Hospital","cutDescription":"Mayo Hospital, Central Ave, Mominpura, Nagpur 440018","description":"Mayo Hospital, Central Ave, Mominpura, Nagpur 440018","street":"Mayo Hospital, Central Ave, Mominpura, ","city":"Nagpur","zip":"440018","country":"India","state":"Maharashtra ","address":"Mayo Hospital, Central Ave, Mominpura, , 440018 Nagpur, Maharashtra , India","date":"2020-03-23 05:05:57","readmore":"\/index.php\/testing-facilities\/15-government-laboratories\/72-indira-gandhi-government-medical-college-hospital","multimedia":""},
    {"id":158,"catid":15,"lat":25.610615,"lng":85.088951,"title":"Indira Gandhi Institute of Medical Sciences, Patna","cutDescription":"Allahabad bank, Bailey Rd, Sheikhpura, Patna, Bihar 800014","description":"Allahabad bank, Bailey Rd, Sheikhpura, Patna, Bihar 800014","street":"Allahabad bank, Bailey Rd","city":"Sheikhpura, Patna","zip":"800014","country":"India","state":"Bihar","address":"Allahabad bank, Bailey Rd, 800014 Sheikhpura, Patna, Bihar, India","date":"2020-03-24 13:32:07","readmore":"\/index.php\/testing-facilities\/15-government-laboratories\/158-indira-gandhi-institute-of-medical-sciences-patna","multimedia":""},
    {"id":49,"catid":15,"lat":31.106512,"lng":77.182251,"title":"Indira Gandhi Medical College, Shimla","cutDescription":"Ridge Sanjauli Rd, Lakkar Bazar, Shimla, Himachal Pradesh 171001","description":"Ridge Sanjauli Rd, Lakkar Bazar, Shimla, Himachal Pradesh 171001","street":"Ridge Sanjauli Rd, Lakkar Bazar, ","city":"Shimla, ","zip":"171001","country":"India","state":"Himachal Pradesh ","address":"Ridge Sanjauli Rd, Lakkar Bazar, , 171001 Shimla, , Himachal Pradesh , India","date":"2020-03-22 21:34:13","readmore":"\/index.php\/testing-facilities\/15-government-laboratories\/49-indira-gandhi-medical-college-shimla","multimedia":""},
    {"id":157,"catid":16,"lat":19.195042,"lng":72.946365,"title":"InfeXn Laboratories Private Ltd, Thane","cutDescription":"InfeXn Laboratories Private Ltd, A\/131, Therelek Compound, Road Number 23, Wagle Industrial...","description":"InfeXn Laboratories Private Ltd, A\/131, Therelek Compound, Road Number 23, Wagle Industrial Estate, Thane West, Thane, Maharashtra 400604","street":"Road Number 23, Wagle Industrial Estate","city":"Thane","zip":"400604","country":"India","state":"Maharashtra","address":"Road Number 23, Wagle Industrial Estate, 400604 Thane, Maharashtra, India","date":"2020-03-24 12:05:12","readmore":"\/index.php\/testing-facilities\/16-private-laboratories\/157-infexn-laboratories-private-ltd-thane","multimedia":""},
    {"id":123,"catid":15,"lat":28.506643,"lng":77.163948,"title":"Institute of Liver and Biliary Sciences, New Delhi","cutDescription":"D1 ILBS Road, Vasant Kunj, New Delhi, Delhi 110070","description":"D1 ILBS Road, Vasant Kunj, New Delhi, Delhi 110070","street":" D1 ILBS Road, Vasant Kunj,","city":"New Delhi","zip":"110070","country":"India","state":"Delhi","address":" D1 ILBS Road, Vasant Kunj,, 110070 New Delhi, Delhi, India","date":"2020-03-23 09:10:07","readmore":"\/index.php\/testing-facilities\/15-government-laboratories\/123-institute-of-liver-and-biliary-sciences-new-delhi","multimedia":""},
    {"id":39,"catid":15,"lat":25.274498,"lng":82.999542,"title":"Institute of Medical Sciences BHU","cutDescription":"Aurobindo Colony, Banaras Hindu University Campus, Varanasi, Uttar Pradesh 221005","description":"Aurobindo Colony, Banaras Hindu University Campus, Varanasi, Uttar Pradesh 221005","street":"Aurobindo Colony, Banaras Hindu University Campus, ","city":"Varanasi,","zip":" 221005","country":"India","state":"Uttar Pradesh","address":"Aurobindo Colony, Banaras Hindu University Campus, ,  221005 Varanasi,, Uttar Pradesh, India","date":"2020-03-22 20:45:31","readmore":"\/index.php\/testing-facilities\/15-government-laboratories\/39-institute-of-medical-sciences-bhu","multimedia":""},
    {"id":22,"catid":15,"lat":22.53969,"lng":88.342216,"title":"Institute of Post Graduate Medical Education & Research (IPGMER), Kolkata","cutDescription":"244, Acharya Jagadish Chandra Bose Rd, Bhowanipore, Kolkata, West Bengal 700020","description":"244, Acharya Jagadish Chandra Bose Rd, Bhowanipore, Kolkata, West Bengal 700020","street":"244, Acharya Jagadish Chandra Bose Rd, Bhowanipore","city":" Kolkata","zip":"700020","country":"India","state":" West Bengal ","address":"244, Acharya Jagadish Chandra Bose Rd, Bhowanipore, 700020  Kolkata,  West Bengal , India","date":"2020-03-22 20:00:32","readmore":"\/index.php\/testing-facilities\/15-government-laboratories\/22-institute-of-post-graduate-medical-education-research-ipgmer-kolkata","multimedia":""},
    {"id":183,"catid":15,"lat":17.394382,"lng":78.49205,"title":"Institute Of Preventive Medicine, Hyderabad","cutDescription":"Narayanaguda, Hyderabad, Telangana 500029","description":"Narayanaguda, Hyderabad, Telangana 500029","street":"Narayanaguda","city":"Hyderabad","zip":"500029","country":"India","state":"Telangana","address":"Narayanaguda, 500029 Hyderabad, Telangana, India","date":"2020-03-27 07:32:06","readmore":"\/index.php\/testing-facilities\/15-government-laboratories\/183-institute-of-preventive-medicine-hyderabad","multimedia":""},
    {"id":160,"catid":15,"lat":9.57547,"lng":76.578987,"title":"Interuniversity, kottayam","cutDescription":"Thalappady, Kerala 686019","description":"Thalappady, Kerala 686019","street":"Thalappady, ","city":"Thalappady, ","zip":"686019","country":"India","state":"Kerala ","address":"Thalappady, , 686019 Thalappady, , Kerala , India","date":"2020-03-24 14:16:35","readmore":"\/index.php\/testing-facilities\/15-government-laboratories\/160-interuniversity-kottayam","multimedia":""},
    {"id":86,"catid":15,"lat":11.950302,"lng":79.797508,"title":"Jawaharlal Institute of Postgraduate Medical Education & Research, Puducherry","cutDescription":"Jipmer Campus Rd, Gorimedu, Dhanvantari Nagar, Puducherry, 605006","description":"Jipmer Campus Rd, Gorimedu, Dhanvantari Nagar, Puducherry, 605006","street":"Jipmer Campus Rd, Gorimedu, Dhanvantari Nagar, ","city":"Puducherry,","zip":" 605006","country":"India","state":"Puducherry,","address":"Jipmer Campus Rd, Gorimedu, Dhanvantari Nagar, ,  605006 Puducherry,, Puducherry,, India","date":"2020-03-23 05:36:59","readmore":"\/index.php\/testing-facilities\/15-government-laboratories\/86-jawaharlal-institute-of-postgraduate-medical-education-research-puducherry","multimedia":""},
    {"id":82,"catid":15,"lat":24.809977,"lng":93.96096,"title":"Jawaharlal Nehru Institute of Medical Sciences, Imphal-East, Manipur","cutDescription":"Porompat, Imphal, Manipur 795004","description":"Porompat, Imphal, Manipur 795004","street":"Porompat, ","city":"Imphal, ","zip":"795004","country":"India","state":" Manipur","address":"Porompat, , 795004 Imphal, ,  Manipur, India","date":"2020-03-23 05:30:01","readmore":"\/index.php\/testing-facilities\/15-government-laboratories\/82-jawaharlal-nehru-institute-of-medical-sciences-imphal-east-manipur","multimedia":""},
    {"id":36,"catid":15,"lat":27.916861,"lng":78.087112,"title":"Jawaharlal Nehru Medical College, Aligarh","cutDescription":"Medical Rd, AMU Campus, Aligarh, Uttar Pradesh 202002","description":"Medical Rd, AMU Campus, Aligarh, Uttar Pradesh 202002","street":"Medical Rd, AMU Campus","city":"Aligarh","zip":"202002","country":"India","state":"Uttar Pradesh ","address":"Medical Rd, AMU Campus, 202002 Aligarh, Uttar Pradesh , India","date":"2020-03-22 20:41:03","readmore":"\/index.php\/testing-facilities\/15-government-laboratories\/36-jawaharlal-nehru-medical-college-aligarh","multimedia":""},
    {"id":105,"catid":15,"lat":24.58556,"lng":76.158852,"title":"Jhalawar Medical College, Jhalawar, Rajasthan","cutDescription":"<p>Jhalawar Medical College,<br \/>Jhalawar, Rajasthan<\/p><p>\u00a0<\/p><p>N.H.-12, Kota Rd, Jhalawar, Rajasthan 326001<\/p>","description":"<p>Jhalawar Medical College,<br \/>Jhalawar, Rajasthan<\/p><p>\u00a0<\/p><p>N.H.-12, Kota Rd, Jhalawar, Rajasthan 326001<\/p>","street":"N.H.-12, Kota Rd, Jhalawar, ","city":"Jhalawar,","zip":"326001","country":"India","state":"Rajasthan ","address":"N.H.-12, Kota Rd, Jhalawar, , 326001 Jhalawar,, Rajasthan , India","date":"2020-03-23 07:10:05","readmore":"\/index.php\/testing-facilities\/15-government-laboratories\/105-jhalawar-medical-college-jhalawar-rajasthan","multimedia":""},
    {"id":139,"catid":15,"lat":26.467302,"lng":74.634148,"title":"JLN Medical College, Ajmer","cutDescription":"JLN Medical College, Ajmer, Kala Bagh, Ajmer, Rajasthan 305001","description":"JLN Medical College, Ajmer, Kala Bagh, Ajmer, Rajasthan 305001","street":" Kala Bagh","city":"Ajmer","zip":"305001","country":"India","state":"Rajasthan","address":" Kala Bagh, 305001 Ajmer, Rajasthan, India","date":"2020-03-23 11:13:31","readmore":"\/index.php\/testing-facilities\/15-government-laboratories\/139-jln-medical-college-ajmer","multimedia":""},
    {"id":14,"catid":15,"lat":26.742579,"lng":94.194832,"title":"Jorhat Medical College, Jorhat","cutDescription":"Jorhat Medical College, Jorhat Kushal Konwar Path, Barbheta, Jorhat, Assam 785001","description":"Jorhat Medical College, Jorhat Kushal Konwar Path, Barbheta, Jorhat, Assam 785001","street":"Kushal Konwar Path, Barbheta","city":"Jorhat","zip":"785001","country":"India","state":"Assam","address":"Kushal Konwar Path, Barbheta, 785001 Jorhat, Assam, India","date":"2020-03-22 18:53:54","readmore":"\/index.php\/testing-facilities\/15-government-laboratories\/14-jorhat-medical-college-jorhat","multimedia":""},
    {"id":134,"catid":15,"lat":18.984041,"lng":72.827652,"title":"Kasturba Hospital for Infectious Diseases, Mumbai","cutDescription":"Kasturba Hospital for Infectious Diseases, Mumbai, Sane Guruji Marg, Arya Nagar, Chinchpokli,...","description":"Kasturba Hospital for Infectious Diseases, Mumbai, Sane Guruji Marg, Arya Nagar, Chinchpokli, Mumbai, Maharashtra 400034","street":" Sane Guruji Marg, Arya Nagar, Chinchpokli","city":"Mumbai","zip":"400034","country":"India","state":"Maharashtra","address":" Sane Guruji Marg, Arya Nagar, Chinchpokli, 400034 Mumbai, Maharashtra, India","date":"2020-03-23 10:27:21","readmore":"\/index.php\/testing-facilities\/15-government-laboratories\/134-kasturba-hospital-for-infectious-diseases-mumbai","multimedia":""},
    {"id":35,"catid":15,"lat":26.868742,"lng":80.916214,"title":"King George's Medical University, Lucknow","cutDescription":"Shah Mina Rd, Chowk, Lucknow, Uttar Pradesh 226003","description":"Shah Mina Rd, Chowk, Lucknow, Uttar Pradesh 226003","street":"Shah Mina Rd, Chowk","city":"Lucknow","zip":"226003","country":"India","state":" Uttar Pradesh","address":"Shah Mina Rd, Chowk, 226003 Lucknow,  Uttar Pradesh, India","date":"2020-03-22 20:39:16","readmore":"\/index.php\/testing-facilities\/15-government-laboratories\/35-king-george-s-medical-university-lucknow","multimedia":""},
    {"id":95,"catid":15,"lat":13.012446,"lng":80.215416,"title":"King Institute of Preventive Medicine and Research, Guindy, Chennai, Tamil Nadu","cutDescription":"King Institute of Preventive Medicine and Research, <span class=\"section-info-text\"><span class=\"widget-pane-link\">Guindy, Chennai, Tamil Nadu 600032<\/span><\/span>","description":"King Institute of Preventive Medicine and Research, <span class=\"section-info-text\"><span class=\"widget-pane-link\">Guindy, Chennai, Tamil Nadu 600032<\/span><\/span>","street":"Guindy","city":"Chennai","zip":"600032","country":"India","state":"Tamil Nadu","address":"Guindy, 600032 Chennai, Tamil Nadu, India","date":"2020-03-23 05:55:14","readmore":"\/index.php\/testing-facilities\/15-government-laboratories\/95-king-institute-of-preventive-medicine-and-research-guindy-chennai-tamil-nadu","multimedia":""},
    {"id":155,"catid":16,"lat":19.13126,"lng":72.822868,"title":"Kokilaben Dhirubhai Ambani Hospital Laboratory, Mumbai","cutDescription":"Kokilaben Dhirubhai Ambani Hospital Laboratory, Four Bungalows, Andheri (West), Mumbai,...","description":"Kokilaben Dhirubhai Ambani Hospital Laboratory, Four Bungalows, Andheri (West), Mumbai, Maharashtra, India","street":"Andheri West","city":"Mumbai","zip":"400053","country":"India","state":"Maharashtra","address":"Andheri West, 400053 Mumbai, Maharashtra, India","date":"2020-03-24 08:40:27","readmore":"\/index.php\/testing-facilities\/16-private-laboratories\/155-kokilaben-dhirubhai-ambani-hospital-laboratory-mumbai","multimedia":""},
    {"id":92,"catid":15,"lat":11.671602,"lng":78.065346,"title":"Kumar Mangalam Government Medical College, Salem","cutDescription":"<span class=\"section-info-text\"><span class=\"widget-pane-link\">Government Mohan Kumaramangalam Medical College, Steel Plant Road Sarkar Kollappatty, Salem, Tamil<\/span><\/span>...","description":"<span class=\"section-info-text\"><span class=\"widget-pane-link\">Government Mohan Kumaramangalam Medical College, Steel Plant Road Sarkar Kollappatty, Salem, Tamil Nadu 636030<\/span><\/span>","street":"Steel Plant Road Sarkar Kollappatty","city":"Salem","zip":"636030","country":"India","state":"Tamil Nadu","address":"Steel Plant Road Sarkar Kollappatty, 636030 Salem, Tamil Nadu, India","date":"2020-03-23 05:45:08","readmore":"\/index.php\/testing-facilities\/15-government-laboratories\/92-kumar-mangalam-government-medical-college-salem","multimedia":""},
    {"id":147,"catid":16,"lat":17.414244,"lng":78.410278,"title":"Laboratory Services Apollo Hospitals, Hyderabad","cutDescription":"Laboratory Services Apollo Hospitals Hyderabad, 6th Floor Health street Building, Jubilee Hills,...","description":"Laboratory Services Apollo Hospitals Hyderabad, 6th Floor Health street Building, Jubilee Hills, Hyderabad <span class=\"LrzXr\">500096<\/span>","street":"Health street Building, Jubilee Hills","city":"Hyderabad","zip":"500096","country":"India","state":"Telangana","address":"Health street Building, Jubilee Hills, 500096 Hyderabad, Telangana, India","date":"2020-03-23 13:50:02","readmore":"\/index.php\/testing-facilities\/16-private-laboratories\/147-laboratory-services-apollo-hospitals-hyderabad","multimedia":""},
    {"id":146,"catid":16,"lat":28.540602,"lng":77.281235,"title":"Laboratory Services Indraprastha Apollo Hospitals, Sarita Vihar, New Delhi","cutDescription":"<span>Laboratory Services Indraprastha Apollo Hospitals,\u00a0 Sarita Vihar, New Delhi<\/span> <span class=\"section-info-text\"><span class=\"widget-pane-link\">110076<\/span><\/span>","description":"<span>Laboratory Services Indraprastha Apollo Hospitals,\u00a0 Sarita Vihar, New Delhi<\/span> <span class=\"section-info-text\"><span class=\"widget-pane-link\">110076<\/span><\/span>","street":"Sarita Vihar","city":"New Delhi","zip":"110076","country":"India","state":"Delhi","address":"Sarita Vihar, 110076 New Delhi, Delhi, India","date":"2020-03-23 13:37:06","readmore":"\/index.php\/testing-facilities\/16-private-laboratories\/146-laboratory-services-indraprastha-apollo-hospitals-sarita-vihar-new-delhi","multimedia":""},
    {"id":37,"catid":15,"lat":28.633987,"lng":77.212578,"title":"Lady Hardinge Medical College, New Delhi","cutDescription":"Lady Hardinge Medical College, Connaught Place, New Delhi, Delhi 110001","description":"Lady Hardinge Medical College, Connaught Place, New Delhi, Delhi 110001","street":"Connaught Place","city":"New Delhi","zip":"110001","country":"India","state":"Delhi ","address":"Connaught Place, 110001 New Delhi, Delhi , India","date":"2020-03-22 20:42:28","readmore":"\/index.php\/testing-facilities\/15-government-laboratories\/37-lady-hardinge-medical-college-new-delhi","multimedia":""},
    {"id":142,"catid":15,"lat":28.960011,"lng":77.748032,"title":"Lala Lajpat Rai Memorial Medical College, Meerut","cutDescription":"Garh Road, Jai Bhim Nagar, Meerut, Uttar Pradesh 250002","description":"Garh Road, Jai Bhim Nagar, Meerut, Uttar Pradesh 250002","street":" Garh Road, Jai Bhim Nagar","city":"Meerut","zip":"250002","country":"India","state":"Uttar Pradesh","address":" Garh Road, Jai Bhim Nagar, 250002 Meerut, Uttar Pradesh, India","date":"2020-03-23 12:19:25","readmore":"\/index.php\/testing-facilities\/15-government-laboratories\/142-lala-lajpat-rai-memorial-medical-college-meerut","multimedia":""},
    {"id":30,"catid":15,"lat":19.050722,"lng":81.948189,"title":"Late Baliram Kashyap M Govt. Medical College, Jagdalpur","cutDescription":"Dimrapal, Jagdalpur, Chhattisgarh 494001","description":"Dimrapal, Jagdalpur, Chhattisgarh 494001","street":"Dimrapal","city":"Jagdalpur","zip":"494001","country":"India","state":"Chhattisgarh ","address":"Dimrapal, 494001 Jagdalpur, Chhattisgarh , India","date":"2020-03-22 20:23:06","readmore":"\/index.php\/testing-facilities\/15-government-laboratories\/30-late-baliram-kashyap-m-govt-medical-college-jagdalpur","multimedia":""},
    {"id":41,"catid":15,"lat":22.477367,"lng":70.065231,"title":"M.P. Shah Govt Medical College, Jamnagar","cutDescription":"Pandit Nehru Marg, Indradeep Society, Jamnagar, Gujarat 361008","description":"Pandit Nehru Marg, Indradeep Society, Jamnagar, Gujarat 361008","street":"Pandit Nehru Marg, Indradeep Society","city":"Jamnagar","zip":"361008","country":"India","state":"Gujarat ","address":"Pandit Nehru Marg, Indradeep Society, 361008 Jamnagar, Gujarat , India","date":"2020-03-22 20:55:21","readmore":"\/index.php\/testing-facilities\/15-government-laboratories\/41-m-p-shah-govt-medical-college-jamnagar","multimedia":""},
    {"id":96,"catid":15,"lat":13.079977,"lng":80.270096,"title":"Madras Medical College, Chennai, Tamil Nadu","cutDescription":"Madras Medical College, <span class=\"section-info-text\"><span class=\"widget-pane-link\">Near Park Town Station, Park Town, Chennai, Tamil Nadu 600003<\/span><\/span>","description":"Madras Medical College, <span class=\"section-info-text\"><span class=\"widget-pane-link\">Near Park Town Station, Park Town, Chennai, Tamil Nadu 600003<\/span><\/span>","street":"Near Park Town Station, Park Town","city":"Chennai","zip":"600003","country":"India","state":"Tamil Nadu","address":"Near Park Town Station, Park Town, 600003 Chennai, Tamil Nadu, India","date":"2020-03-23 05:57:52","readmore":"\/index.php\/testing-facilities\/15-government-laboratories\/96-madras-medical-college-chennai-tamil-nadu","multimedia":""},
    {"id":87,"catid":15,"lat":9.928428,"lng":78.134979,"title":"Madurai Medical College, Madurai","cutDescription":"<span class=\"section-info-text\"><span class=\"widget-pane-link\">Medical College, Medical College Rd, Alwarpuram, Madurai, Tamil Nadu 625020<\/span><\/span>","description":"<span class=\"section-info-text\"><span class=\"widget-pane-link\">Medical College, Medical College Rd, Alwarpuram, Madurai, Tamil Nadu 625020<\/span><\/span>","street":"Medical College Rd, Alwarpuram","city":"Madurai","zip":"625020","country":"India","state":"Tamil Nadu","address":"Medical College Rd, Alwarpuram, 625020 Madurai, Tamil Nadu, India","date":"2020-03-23 05:37:56","readmore":"\/index.php\/testing-facilities\/15-government-laboratories\/87-madurai-medical-college-madurai","multimedia":""},
    {"id":179,"catid":15,"lat":11.749465,"lng":75.523911,"title":"Malabar Cancer Centre, Thalassery","cutDescription":"Kodiyeri, Muzhikkara - MCC Rd, Illathaazha, Thalassery, Kerala 670103","description":"Kodiyeri, Muzhikkara - MCC Rd, Illathaazha, Thalassery, Kerala 670103","street":"Kodiyeri, Muzhikkara - MCC Rd","city":"Thalassery","zip":"670103","country":"India","state":"Kerala","address":"Kodiyeri, Muzhikkara - MCC Rd, 670103 Thalassery, Kerala, India","date":"2020-03-27 06:03:24","readmore":"\/index.php\/testing-facilities\/15-government-laboratories\/179-malabar-cancer-centre-thalassery","multimedia":""},
    {"id":156,"catid":16,"lat":28.527643,"lng":77.2099,"title":"Max lab, Max Super Speciality Hospita, Saket, New Delhi","cutDescription":"Max lab, Max Super Speciality Hospital, 1, Press Enclave Road, Saket New Delhi 110017","description":"Max lab, Max Super Speciality Hospital, 1, Press Enclave Road, Saket New Delhi 110017","street":"1, Press Enclave Road, Saket","city":"New Delhi","zip":"110017","country":"India","state":"Delhi","address":"1, Press Enclave Road, Saket, 110017 New Delhi, Delhi, India","date":"2020-03-24 09:54:54","readmore":"\/index.php\/testing-facilities\/16-private-laboratories\/156-max-lab-max-super-speciality-hospita-saket-new-delhi","multimedia":""},
    {"id":191,"catid":16,"lat":17.458767,"lng":78.478363,"title":"Medcis Pathlabs India Pvt.Ltd., Secunderabad","cutDescription":"Plot 16 & 17, Swathi Plaza, Bhavani Enclave, Anand Nagar, New Bowenpally, near Asish Gardens,...","description":"Plot 16 & 17, Swathi Plaza, Bhavani Enclave, Anand Nagar, New Bowenpally, near Asish Gardens, Hyderabad, Telangana 500011","street":"Plot 16 & 17, Swathi  Plaza, Bhavani Enclave, Anand Nagar, New Bowenpally, near Asish Gardens","city":"Hyderabad","zip":"500011","country":"India","state":"Telangana","address":"Plot 16 & 17, Swathi  Plaza, Bhavani Enclave, Anand Nagar, New Bowenpally, near Asish Gardens, 500011 Hyderabad, Telangana, India","date":"2020-03-28 08:04:06","readmore":"\/index.php\/testing-facilities\/16-private-laboratories\/191-medcis-pathlabs-india-pvt-ltd-secunderabad","multimedia":""},
    {"id":113,"catid":16,"lat":19.082016,"lng":72.88353,"title":"Metropolis Healthcare Ltd","cutDescription":"Metropolis Healthcare Ltd, <span class=\"section-info-text\"><span class=\"widget-pane-link\">4th Floor, Commerical Building 1-A, Kohinoor City Mall, Off LBS Marg,<\/span><\/span>...","description":"Metropolis Healthcare Ltd, <span class=\"section-info-text\"><span class=\"widget-pane-link\">4th Floor, Commerical Building 1-A, Kohinoor City Mall, Off LBS Marg, Vidyavihar (West), Mumbai, Maharashtra 400070<\/span><\/span>","street":"4th Floor, Commerical Building 1-A, Kohinoor City Mall, Vidyavihar (West)","city":"Mumbai","zip":"400070","country":"India","state":"Maharashtra","address":"4th Floor, Commerical Building 1-A, Kohinoor City Mall, Vidyavihar (West), 400070 Mumbai, Maharashtra, India","date":"2020-03-23 07:53:32","readmore":"\/index.php\/testing-facilities\/16-private-laboratories\/113-metropolis-healthcare-ltd","multimedia":""},
    {"id":67,"catid":15,"lat":22.714333,"lng":75.880692,"title":"MGM Medical College, Indore","cutDescription":"MGM Medical College, Indore, Madhya Pradesh","description":"MGM Medical College, Indore, Madhya Pradesh","street":"A.B.Road, Indore,","city":" Indore","zip":"452001","country":"India","state":" Madhya Pradesh ","address":"A.B.Road, Indore,, 452001  Indore,  Madhya Pradesh , India","date":"2020-03-23 03:56:14","readmore":"\/index.php\/testing-facilities\/15-government-laboratories\/67-mgm-medical-college-indore","multimedia":""},
    {"id":55,"catid":15,"lat":22.843639,"lng":86.232399,"title":"MGM Medical College, Jamshedpur ","cutDescription":"Dimna Rd, Hill View Colony, Mango, Jamshedpur, Jharkhand 831020","description":"Dimna Rd, Hill View Colony, Mango, Jamshedpur, Jharkhand 831020","street":"Dimna Rd, Hill View Colony, Mango, ","city":"Jamshedpur, ","zip":"831020","country":"India","state":"Jharkhand ","address":"Dimna Rd, Hill View Colony, Mango, , 831020 Jamshedpur, , Jharkhand , India","date":"2020-03-22 22:12:34","readmore":"\/index.php\/testing-facilities\/15-government-laboratories\/55-mgm-medical-college-jamshedpur","multimedia":""},
    {"id":211,"catid":16,"lat":11.014438,"lng":76.909927,"title":"Microbiological Laboratory, Coimbatore","cutDescription":"Microbiological laboratory, no-02, kings colony, united nagar, veerakeralam road, vadavalli,...","description":"Microbiological laboratory, no-02, kings colony, united nagar, veerakeralam road, vadavalli, Coimbatore, Tamil Nadu, India","street":"kings colony, united nagar, veerakeralam road, vadavalli","city":"Coimbatore","zip":"641041","country":"India","state":"Tamil Nadu","address":"kings colony, united nagar, veerakeralam road, vadavalli, 641041 Coimbatore, Tamil Nadu, India","date":"2020-03-30 15:15:50","readmore":"\/index.php\/testing-facilities\/16-private-laboratories\/211-microbiological-laboratory-coimbatore","multimedia":""},
    {"id":25,"catid":15,"lat":22.421703,"lng":87.323135,"title":"Midnapore Medical College, Midnapore","cutDescription":"Vidyasagar Road , Paschim Medinipur, Midnapore, West Bengal, 721 101","description":"Vidyasagar Road , Paschim Medinipur, Midnapore, West Bengal, 721 101","street":"Vidyasagar Rd","city":" Midnapore","zip":"721101","country":"","state":"West Bengal","address":"Vidyasagar Rd, 721101  Midnapore, West Bengal, ","date":"2020-03-22 20:04:48","readmore":"\/index.php\/testing-facilities\/15-government-laboratories\/25-midnapore-medical-college-midnapore","multimedia":""},
    {"id":188,"catid":16,"lat":11.245797,"lng":75.79866,"title":"MIMS Laboratory Services, Kozhikode","cutDescription":"Aster MIMS Laboratory Services, Mini, Mini Bypass Rd, Govindapuram, Kozhikode, Kerala 673016","description":"Aster MIMS Laboratory Services, Mini, Mini Bypass Rd, Govindapuram, Kozhikode, Kerala 673016","street":"Mini Bypass Rd, Govindapuram","city":"Kozhikode","zip":"673016","country":"India","state":"Kerala ","address":"Mini Bypass Rd, Govindapuram, 673016 Kozhikode, Kerala , India","date":"2020-03-27 10:49:56","readmore":"\/index.php\/testing-facilities\/16-private-laboratories\/188-mims-laboratory-services-kozhikode","multimedia":""},
    {"id":168,"catid":16,"lat":28.466013,"lng":77.02478,"title":"Modern Diagnostic & research Centre Laboratory, Gurugram","cutDescription":"363-364\/4, Jawahar Nagar, New Railway Road, Gurugram-122001, Haryana","description":"363-364\/4, Jawahar Nagar, New Railway Road, Gurugram-122001, Haryana","street":"363-364\/4, Jawahar Nagar, New Railway Road","city":"Gurugram","zip":"122001","country":"India","state":"Haryana","address":"363-364\/4, Jawahar Nagar, New Railway Road, 122001 Gurugram, Haryana, India","date":"2020-03-25 06:54:58","readmore":"\/index.php\/testing-facilities\/16-private-laboratories\/168-modern-diagnostic-research-centre-laboratory-gurugram","multimedia":""},
    {"id":192,"catid":16,"lat":28.500406,"lng":77.072037,"title":"Molq Lab (A Unit of Molecular Quest Healthcare Private Limited), Gurugram","cutDescription":"Plot 28-29, Sector 18(P), Electronic City, Udyog Vihar Phase-IV, Gurugram, Haryana 122001","description":"Plot 28-29, Sector 18(P), Electronic City, Udyog Vihar Phase-IV, Gurugram, Haryana 122001","street":"Plot 28-29, Electronic City, Sector 18","city":"Gurugram","zip":"122001","country":"India","state":"Haryana ","address":"Plot 28-29, Electronic City, Sector 18, 122001 Gurugram, Haryana , India","date":"2020-03-28 08:19:16","readmore":"\/index.php\/testing-facilities\/16-private-laboratories\/192-molq-lab-a-unit-of-molecular-quest-healthcare-private-limited-gurugram","multimedia":""},
    {"id":57,"catid":15,"lat":12.314514,"lng":76.646339,"title":"Mysore Medical College & Research Institute, Mysore","cutDescription":"Irwin Road, next to Railway Staion, Mysuru, Karnataka 570001","description":"Irwin Road, next to Railway Staion, Mysuru, Karnataka 570001","street":"Irwin Road, next to Railway Staion, ","city":"Mysuru, ","zip":"570001","country":"India","state":"Karnataka ","address":"Irwin Road, next to Railway Staion, , 570001 Mysuru, , Karnataka , India","date":"2020-03-22 22:23:23","readmore":"\/index.php\/testing-facilities\/15-government-laboratories\/57-mysore-medical-college-research-institute-mysore","multimedia":""},
    {"id":124,"catid":15,"lat":28.679474,"lng":77.22139,"title":"National Centre for Disease Control, New Delhi","cutDescription":" 22, Sham Nath Marg, Civil Lines, New Delhi, Delhi 110054","description":" 22, Sham Nath Marg, Civil Lines, New Delhi, Delhi 110054","street":" 22, Sham Nath Marg, Civil Lines","city":"New Delhi","zip":"110054","country":"India","state":"Delhi","address":" 22, Sham Nath Marg, Civil Lines, 110054 New Delhi, Delhi, India","date":"2020-03-23 09:14:23","readmore":"\/index.php\/testing-facilities\/15-government-laboratories\/124-national-centre-for-disease-control-new-delhi","multimedia":""},
    {"id":70,"catid":15,"lat":23.147329,"lng":79.878586,"title":"National Institute for Research in Tribal Health, Jabalpur","cutDescription":"Nagpur Road, near NSCB Medical Collage, Dhanvantri Nagar, Shastri Nagar, Jabalpur, Madhya Pradesh...","description":"Nagpur Road, near NSCB Medical Collage, Dhanvantri Nagar, Shastri Nagar, Jabalpur, Madhya Pradesh 482003","street":"Nagpur Road, near NSCB Medical Collage, Dhanvantri Nagar, Shastri Nagar,","city":"Jabalpur","zip":"482003","country":"India","state":"Madhya Pradesh","address":"Nagpur Road, near NSCB Medical Collage, Dhanvantri Nagar, Shastri Nagar,, 482003 Jabalpur, Madhya Pradesh, India","date":"2020-03-23 04:57:34","readmore":"\/index.php\/testing-facilities\/15-government-laboratories\/70-national-institute-for-research-in-tribal-health-jabalpur","multimedia":""},
    {"id":20,"catid":15,"lat":22.564617,"lng":88.400352,"title":"National Institute of Cholera & Enteric Diseases (NICED), Kolkata","cutDescription":"GB 4, 1st Floor, ID & BG Hospital Campus, 57, Dr SC Banerjee Rd, Beleghata, Kolkata, West Bengal...","description":"GB 4, 1st Floor, ID & BG Hospital Campus, 57, Dr SC Banerjee Rd, Beleghata, Kolkata, West Bengal 700010","street":"GB 4, 1st Floor, ID & BG Hospital Campus, 57, Dr SC Banerjee Rd ","city":"Kolkata","zip":" 700010","country":"India","state":"West Bengal ","address":"GB 4, 1st Floor, ID & BG Hospital Campus, 57, Dr SC Banerjee Rd ,  700010 Kolkata, West Bengal , India","date":"2020-03-22 19:57:00","readmore":"\/index.php\/testing-facilities\/15-government-laboratories\/20-national-institute-of-cholera-enteric-diseases-niced-kolkata","multimedia":""},
    {"id":65,"catid":15,"lat":9.418581,"lng":76.343201,"title":"National Institute of Virology Field Unit, Allapuzzha","cutDescription":"Vandanam, Kerala 688005","description":"Vandanam, Kerala 688005","street":"Vandanam, ","city":"Allapuzzha","zip":"688005","country":"India","state":"Kerala ","address":"Vandanam, , 688005 Allapuzzha, Kerala , India","date":"2020-03-22 22:52:58","readmore":"\/index.php\/testing-facilities\/15-government-laboratories\/65-national-institute-of-virology-field-unit-allapuzzha","multimedia":""},
    {"id":138,"catid":15,"lat":19.002056,"lng":72.841553,"title":"National Institute of Virology Field Unit, Mumbai","cutDescription":"National Institute of Virology Field Unit, Mumbai, Haffkine Institute Compound, A D Marg, Parel...","description":"National Institute of Virology Field Unit, Mumbai, Haffkine Institute Compound, A D Marg, Parel Mumbai 4000012","street":"Haffkine Institute Compound, A D Marg, Parel ","city":"Mumbai","zip":"4000012","country":"India","state":"Maharashtra","address":"Haffkine Institute Compound, A D Marg, Parel , 4000012 Mumbai, Maharashtra, India","date":"2020-03-23 11:07:06","readmore":"\/index.php\/testing-facilities\/15-government-laboratories\/138-national-institute-of-virology-field-unit-mumbai","multimedia":""},
    {"id":129,"catid":15,"lat":12.937333,"lng":77.588646,"title":"National Institute of Virology, Field Unit, Bengaluru","cutDescription":"National Institute of Virology, Field Unit, <span class=\"section-info-text\"><span class=\"widget-pane-link\">Jaya Nagar 1st Block, Jayanagar, Bengaluru, Karnataka<\/span><\/span>...","description":"National Institute of Virology, Field Unit, <span class=\"section-info-text\"><span class=\"widget-pane-link\">Jaya Nagar 1st Block, Jayanagar, Bengaluru, Karnataka 560011<\/span><\/span>","street":"1st Block, Jayanagar","city":"Bengaluru","zip":"560011","country":"India","state":"Karnataka","address":"1st Block, Jayanagar, 560011 Bengaluru, Karnataka, India","date":"2020-03-23 09:32:54","readmore":"\/index.php\/testing-facilities\/15-government-laboratories\/129-national-institute-of-virology-field-unit-bengaluru","multimedia":""},
    {"id":130,"catid":15,"lat":18.547873,"lng":73.769043,"title":"National Institute of Virology, Pune","cutDescription":"<span class=\"section-info-text\"><span class=\"widget-pane-link\">National Institute of Virology, Pune, 130\/1, Pashan - Sus Rd, Pashan Gaon, Pashan, Pune,<\/span><\/span>...","description":"<span class=\"section-info-text\"><span class=\"widget-pane-link\">National Institute of Virology, Pune, 130\/1, Pashan - Sus Rd, Pashan Gaon, Pashan, Pune, Maharashtra 411021<\/span><\/span>","street":"130\/1, Pashan - Sus Rd","city":"Pune","zip":"411021","country":"India","state":"Maharashtra","address":"130\/1, Pashan - Sus Rd, 411021 Pune, Maharashtra, India","date":"2020-03-23 09:37:18","readmore":"\/index.php\/testing-facilities\/15-government-laboratories\/130-national-institute-of-virology-pune","multimedia":""},
    {"id":115,"catid":16,"lat":12.981785,"lng":77.602783,"title":"Neuberg Anand Reference Laboratory, Bengaluru","cutDescription":"...","description":"<span id=\"docs-internal-guid-a958a4c6-7fff-654d-6a9c-2225e7085f1d\" style=\"font-size: 11pt; font-family: Arial; color: #000000; background-color: transparent; font-weight: 400; font-style: normal; font-variant: normal; text-decoration: none; vertical-align: baseline; white-space: pre-wrap;\">Neuberg Anand Reference Laboratory, Anand Tower, #54, bowring Hospital Road, Bengaluru, karnataka, India <span id=\"docs-internal-guid-63386298-7fff-37e7-54fa-1cdfd0e02a9c\" style=\"font-size: 10.5pt; font-family: Arial; color: #222222; background-color: #ffffff; font-weight: 400; font-style: normal; font-variant: normal; text-decoration: none; vertical-align: baseline; white-space: pre-wrap;\">560001<\/span><\/span>","street":"Anand Tower, #54, Bowring Hospital Road","city":"Bengaluru","zip":"560001","country":"India","state":"Karnataka","address":"Anand Tower, #54, Bowring Hospital Road, 560001 Bengaluru, Karnataka, India","date":"2020-03-23 07:59:29","readmore":"\/index.php\/testing-facilities\/16-private-laboratories\/115-neuberg-anand-reference-laboratory-bengaluru","multimedia":""},
    {"id":152,"catid":16,"lat":13.0486,"lng":80.26387,"title":"Neuberg Ehrlich Laboratory Pvt Ltd,  Chennai","cutDescription":"Neuberg Ehrlich Laboratory Pvt Ltd, 46 & 48, Masilamani Road, Balaji Nagar, Royapettah, Chennai -...","description":"Neuberg Ehrlich Laboratory Pvt Ltd, 46 & 48, Masilamani Road, Balaji Nagar, Royapettah, Chennai - 600 014, Tamil Nadu","street":" 46 & 48, Masilamani Road, Balaji Nagar","city":"Chennai","zip":"600 014","country":"India","state":"Tamil Nadu","address":" 46 & 48, Masilamani Road, Balaji Nagar, 600 014 Chennai, Tamil Nadu, India","date":"2020-03-24 08:18:10","readmore":"\/index.php\/testing-facilities\/16-private-laboratories\/152-neuberg-ehrlich-laboratory-pvt-ltd-chennai","multimedia":""},
    {"id":164,"catid":15,"lat":17.422014,"lng":78.452026,"title":"Nizam's Institute Of Medical Sciences, Hyderabad","cutDescription":"Punjagutta Rd, Punjagutta Market, Punjagutta, Hyderabad, Telangana 500082","description":"Punjagutta Rd, Punjagutta Market, Punjagutta, Hyderabad, Telangana 500082","street":"Punjagutta Rd, Punjagutta Market, Punjagutta","city":"Hyderabad","zip":"500082","country":"India","state":"Telangana ","address":"Punjagutta Rd, Punjagutta Market, Punjagutta, 500082 Hyderabad, Telangana , India","date":"2020-03-24 21:04:06","readmore":"\/index.php\/testing-facilities\/15-government-laboratories\/164-nizam-s-institute-of-medical-sciences-hyderabad","multimedia":""},
    {"id":26,"catid":15,"lat":26.690771,"lng":88.384911,"title":"North Bengal Medical College, Darjeeling","cutDescription":"Siliguri, West Bengal 734012","description":"Siliguri, West Bengal 734012","street":"Siliguri","city":"Siliguri","zip":"734012","country":"India","state":"West Bengal ","address":"Siliguri, 734012 Siliguri, West Bengal , India","date":"2020-03-22 20:07:12","readmore":"\/index.php\/testing-facilities\/15-government-laboratories\/26-north-bengal-medical-college-darjeeling","multimedia":""},
    {"id":83,"catid":15,"lat":25.591112,"lng":91.937798,"title":"North Eastern Indira Gandhi Regional Institute of Health & Medical Sciences (NEIGRIHMS), Shillong","cutDescription":"NEIGRIHMS, Shillong","description":"NEIGRIHMS, Shillong","street":"Mawdiangdiang, ","city":"Shillong, ","zip":"793018","country":"India","state":"Meghalaya ","address":"Mawdiangdiang, , 793018 Shillong, , Meghalaya , India","date":"2020-03-23 05:32:10","readmore":"\/index.php\/testing-facilities\/15-government-laboratories\/83-north-eastern-indira-gandhi-regional-institute-of-health-medical-sciences-neigrihms-shillong","multimedia":""},
    {"id":173,"catid":16,"lat":28.566372,"lng":77.197624,"title":"ONCQUEST LABORATORIES LIMITED, New Delhi","cutDescription":"ONCQUEST LABORATORIES LIMITED, 3-Factory Road, Adjacent Safdarjung Hospital, New Delhi, Delhi 110029","description":"ONCQUEST LABORATORIES LIMITED, 3-Factory Road, Adjacent Safdarjung Hospital, New Delhi, Delhi 110029","street":"3-Factory Road, Adjacent Safdarjung Hospital","city":"New Delhi","zip":"110029","country":"India","state":"Delhi","address":"3-Factory Road, Adjacent Safdarjung Hospital, 110029 New Delhi, Delhi, India","date":"2020-03-26 07:55:54","readmore":"\/index.php\/testing-facilities\/16-private-laboratories\/173-oncquest-laboratories-limited-new-delhi","multimedia":""},
    {"id":106,"catid":15,"lat":17.382252,"lng":78.480659,"title":"Osmania Medical College, Hyderabad","cutDescription":"Osmania Medical College, <span class=\"section-info-text\"><span class=\"widget-pane-link\">5-1-876, Turrebaz Khan Rd, Troop Bazaar, Koti, Hyderabad, Telangana 500095<\/span><\/span>","description":"Osmania Medical College, <span class=\"section-info-text\"><span class=\"widget-pane-link\">5-1-876, Turrebaz Khan Rd, Troop Bazaar, Koti, Hyderabad, Telangana 500095<\/span><\/span>","street":"5-1-876, Turrebaz Khan Rd","city":"Hyderabad","zip":"500095","country":"India","state":"Telangana","address":"5-1-876, Turrebaz Khan Rd, 500095 Hyderabad, Telangana, India","date":"2020-03-23 07:11:45","readmore":"\/index.php\/testing-facilities\/15-government-laboratories\/106-osmania-medical-college-hyderabad","multimedia":""},
    {"id":47,"catid":15,"lat":28.883762,"lng":76.608688,"title":"Pandit Bhagwat Dayal Sharma Post Graduate  Institute of Medical Sciences, Rohtak","cutDescription":"Pandit Bhagwat Dayal Sharma Post Graduate Institute of Medical Sciences, SH 16A, Dev Colony,...","description":"Pandit Bhagwat Dayal Sharma Post Graduate Institute of Medical Sciences, SH 16A, Dev Colony, Rohtak, Haryana 124514","street":"SH 16A, Dev Colony, ","city":"Rohtak, ","zip":"124514","country":"India","state":"Haryana ","address":"SH 16A, Dev Colony, , 124514 Rohtak, , Haryana , India","date":"2020-03-22 21:26:34","readmore":"\/index.php\/testing-facilities\/15-government-laboratories\/47-pandit-bhagwat-dayal-sharma-post-graduate-institute-of-medical-sciences-rohtak","multimedia":""},
    {"id":174,"catid":16,"lat":23.019569,"lng":72.560623,"title":"PanGenomics International Pvt. Ltd., Ahmedabad","cutDescription":"1st floor sankalp Squre Juna sharda Mandir Cross Road, Ahmedabad, Gujarat 380006","description":"1st floor sankalp Squre Juna sharda Mandir Cross Road, Ahmedabad, Gujarat 380006","street":"1st floor sankalp Squre Juna sharda Mandir Cross Road","city":"Ahmedabad","zip":"380006","country":"India","state":"Gujarat","address":"1st floor sankalp Squre Juna sharda Mandir Cross Road, 380006 Ahmedabad, Gujarat, India","date":"2020-03-26 08:03:03","readmore":"\/index.php\/testing-facilities\/16-private-laboratories\/174-pangenomics-international-pvt-ltd-ahmedabad","multimedia":""},
    {"id":180,"catid":16,"lat":17.521467,"lng":78.632492,"title":"PATHCARE Labs Pvt. Ltd., Hyderabad","cutDescription":"Sy. #34, Opp: Geethanjali Engineering College, Cheeryal (V), Keesara (M), Greater Hyderabad,...","description":"Sy. #34, Opp: Geethanjali Engineering College, Cheeryal (V), Keesara (M), Greater Hyderabad, Telangana 501301","street":"Sy. #34, Opp: Geethanjali Engineering College, Cheeryal (V), Keesara (M)","city":"Greater Hyderabad","zip":"501301","country":"India","state":"Telangana ","address":"Sy. #34, Opp: Geethanjali Engineering College, Cheeryal (V), Keesara (M), 501301 Greater Hyderabad, Telangana , India","date":"2020-03-27 06:26:59","readmore":"\/index.php\/testing-facilities\/16-private-laboratories\/180-pathcare-labs-pvt-ltd-hyderabad","multimedia":""},
    {"id":17,"catid":15,"lat":25.620943,"lng":85.160316,"title":"Patna Medical College, Patna","cutDescription":"<h2><b>Patna Medical College, Patna<\/b><\/h2><p>Ashok Rajpath, Patna University Campus, Patna, Bihar 80001<\/p>","description":"<h2><b>Patna Medical College, Patna<\/b><\/h2><p>Ashok Rajpath, Patna University Campus, Patna, Bihar 80001<\/p>","street":"Ashok Rajpath, Patna University Campus","city":" Patna","zip":"80001","country":"India","state":"Bihar","address":"Ashok Rajpath, Patna University Campus, 80001  Patna, Bihar, India","date":"2020-03-22 19:40:04","readmore":"\/index.php\/testing-facilities\/15-government-laboratories\/17-patna-medical-college-patna","multimedia":""},
    {"id":24,"catid":15,"lat":30.764416,"lng":76.775047,"title":"Post Graduate Institute  of Medical Education  & Research, Chandigarh","cutDescription":"Post Graduate Institute of Medical Education & Research, Chandigarh, Madhya Marg, Sector 12,...","description":"Post Graduate Institute of Medical Education & Research, Chandigarh, Madhya Marg, Sector 12, Chandigarh, 160012","street":"Madhya Marg, Sector 12","city":"Chandigarh","zip":"160012","country":"India","state":"Chandigarh","address":"Madhya Marg, Sector 12, 160012 Chandigarh, Chandigarh, India","date":"2020-03-22 20:03:32","readmore":"\/index.php\/testing-facilities\/15-government-laboratories\/24-post-graduate-institute-of-medical-education-research-chandigarh","multimedia":""},
    {"id":186,"catid":16,"lat":28.580231,"lng":77.051018,"title":"Prognosis Laboratories, New Delhi","cutDescription":"515-516, behind Gupta Properties, Close to Welcome Hotel (ITC, Sector 19, Pocket 1, Dwarka, New...","description":"515-516, behind Gupta Properties, Close to Welcome Hotel (ITC, Sector 19, Pocket 1, Dwarka, New Delhi, Delhi 110075","street":"515-516, Sector-19, Dwarka","city":"New Delhi","zip":"110075","country":"India","state":"Delhi","address":"515-516, Sector-19, Dwarka, 110075 New Delhi, Delhi, India","date":"2020-03-27 08:14:43","readmore":"\/index.php\/testing-facilities\/16-private-laboratories\/186-prognosis-laboratories-new-delhi","multimedia":""},
    {"id":21,"catid":15,"lat":25.599751,"lng":85.197723,"title":"Rajendra  Memorial  Research  Institute  of  Medical  Sciences, Patna","cutDescription":"Sadikpur, Patna, Bihar 800007","description":"Sadikpur, Patna, Bihar 800007","street":"Sadikpur","city":"Patna","zip":"800007","country":"India","state":"Bihar","address":"Sadikpur, 800007 Patna, Bihar, India","date":"2020-03-22 19:58:14","readmore":"\/index.php\/testing-facilities\/15-government-laboratories\/21-rajendra-memorial-research-institute-of-medical-sciences-patna","multimedia":""},
    {"id":54,"catid":15,"lat":23.391525,"lng":85.34845,"title":"Rajendra Institute of Medical Sciences, Ranchi","cutDescription":"Rims Cir, Indraprasth Colony, Bariatu, Ranchi, Jharkhand 834009","description":"Rims Cir, Indraprasth Colony, Bariatu, Ranchi, Jharkhand 834009","street":"Rims Cir, Indraprasth Colony, Bariatu, ","city":"Ranchi, ","zip":"834009","country":"India","state":"Jharkhand ","address":"Rims Cir, Indraprasth Colony, Bariatu, , 834009 Ranchi, , Jharkhand , India","date":"2020-03-22 22:09:32","readmore":"\/index.php\/testing-facilities\/15-government-laboratories\/54-rajendra-institute-of-medical-sciences-ranchi","multimedia":""},
    {"id":132,"catid":15,"lat":8.49236,"lng":76.964684,"title":"Rajiv Gandhi Center for Biotechnology, Thiruvananthapuram","cutDescription":"Rajiv Gandhi Center for Biotechnology,, Melarannoor Road Behind Central Jail Poojapura, Thycaud,...","description":"Rajiv Gandhi Center for Biotechnology,, Melarannoor Road Behind Central Jail Poojapura, Thycaud, Thiruvananthapuram, Kerala 695014","street":"Melarannoor Road Behind Central Jail Poojapura","city":"Thiruvananthapuram","zip":"695014","country":"India","state":"Kerala","address":"Melarannoor Road Behind Central Jail Poojapura, 695014 Thiruvananthapuram, Kerala, India","date":"2020-03-23 10:17:03","readmore":"\/index.php\/testing-facilities\/15-government-laboratories\/132-rajiv-gandhi-center-for-biotechnology-thiruvananthapuram","multimedia":""},
    {"id":8,"catid":15,"lat":16.9792,"lng":82.237297,"title":"Rangaraya Medical College, Kakinada","cutDescription":"Rangaraya Medical College, Kakinada Pithampuram Road, Kakinada, Andhra Pradesh 533001","description":"Rangaraya Medical College, Kakinada Pithampuram Road, Kakinada, Andhra Pradesh 533001","street":"Pithampuram Road","city":"Kakinada","zip":"533001","country":"India","state":"Andhra Pradesh ","address":"Pithampuram Road, 533001 Kakinada, Andhra Pradesh , India","date":"2020-03-22 15:01:58","readmore":"\/index.php\/testing-facilities\/15-government-laboratories\/8-rangaraya-medical-college-kakinada","multimedia":""},
    {"id":81,"catid":15,"lat":24.815901,"lng":93.920616,"title":"Regional Institute of Medical Sciences, Imphal","cutDescription":"Lamphel Road, Lamphelpat, Imphal, Manipur 795004","description":"Lamphel Road, Lamphelpat, Imphal, Manipur 795004","street":"Lamphel Road, Lamphelpat,","city":" Imphal","zip":"795004","country":"India","state":" Manipur ","address":"Lamphel Road, Lamphelpat,, 795004  Imphal,  Manipur , India","date":"2020-03-23 05:27:58","readmore":"\/index.php\/testing-facilities\/15-government-laboratories\/81-regional-institute-of-medical-sciences-imphal","multimedia":""},
    {"id":84,"catid":15,"lat":20.31682,"lng":85.819847,"title":"Regional Medical Research Centre (RMRC), Bhubaneswar","cutDescription":"Nandankanan Rd, Samanta Vihar, Gajapati Nagar, Bhubaneswar, Odisha 751017","description":"Nandankanan Rd, Samanta Vihar, Gajapati Nagar, Bhubaneswar, Odisha 751017","street":"Nandankanan Rd, Samanta Vihar, Gajapati Nagar","city":" Bhubaneswar","zip":" 751017","country":"India","state":"Odisha","address":"Nandankanan Rd, Samanta Vihar, Gajapati Nagar,  751017  Bhubaneswar, Odisha, India","date":"2020-03-23 05:33:27","readmore":"\/index.php\/testing-facilities\/15-government-laboratories\/84-regional-medical-research-centre-rmrc-bhubaneswar","multimedia":""},
    {"id":11,"catid":15,"lat":27.472786,"lng":94.982841,"title":"Regional Medical Research Centre, Dibrugarh","cutDescription":"Regional Medical Research Centre, Dibrugarh Bokul, Lahowal, Dibrugarh, Assam, Assam 786001","description":"Regional Medical Research Centre, Dibrugarh Bokul, Lahowal, Dibrugarh, Assam, Assam 786001","street":"Bokul, Lahowal","city":"Dibrugarh","zip":"786001","country":"India","state":"Assam","address":"Bokul, Lahowal, 786001 Dibrugarh, Assam, India","date":"2020-03-22 17:49:08","readmore":"\/index.php\/testing-facilities\/15-government-laboratories\/11-regional-medical-research-centre-dibrugarh","multimedia":""},
    {"id":3,"catid":15,"lat":11.634907,"lng":92.714638,"title":"Regional Medical Research Centre, Port Blair ","cutDescription":"Post Bag 13, Dollygunj, Port Blair, Andaman and Nicobar Islands 744103","description":"Post Bag 13, Dollygunj, Port Blair, Andaman and Nicobar Islands 744103","street":"Post Bag 13, Dollygun","city":"Port Blair","zip":"744103","country":"India","state":"Andaman and Nicobar Islands","address":"Post Bag 13, Dollygun, 744103 Port Blair, Andaman and Nicobar Islands, India","date":"2020-03-22 10:30:34","readmore":"\/index.php\/testing-facilities\/15-government-laboratories\/3-regional-medical-research-centre-port-blair","multimedia":""},
    {"id":176,"catid":16,"lat":26.875189,"lng":80.935524,"title":"RML Mehrotra Pathology Pvt Ltd., Lucknow","cutDescription":"A-21\/A, Nirala Nagar, Lucknow, Uttar Pradesh 226020","description":"A-21\/A, Nirala Nagar, Lucknow, Uttar Pradesh 226020","street":"A-21\/A, Nirala Nagar","city":"Lucknow","zip":"226020","country":"India","state":"Uttar Pradesh","address":"A-21\/A, Nirala Nagar, 226020 Lucknow, Uttar Pradesh, India","date":"2020-03-27 05:35:03","readmore":"\/index.php\/testing-facilities\/16-private-laboratories\/176-rml-mehrotra-pathology-pvt-ltd-lucknow","multimedia":""},
    {"id":101,"catid":15,"lat":24.588215,"lng":73.692795,"title":"RNT Medical College, Udaipur","cutDescription":"<p>RNT Medical College,<br \/>Udaipur<\/p><p>Court Chowk, City's Prime Health Care Area, Udaipur, Rajasthan 313001<\/p>","description":"<p>RNT Medical College,<br \/>Udaipur<\/p><p>Court Chowk, City's Prime Health Care Area, Udaipur, Rajasthan 313001<\/p>","street":"Court Chowk, City's Prime Health Care Area, ","city":"Udaipur","zip":" 313001","country":"India","state":"Rajasthan","address":"Court Chowk, City's Prime Health Care Area, ,  313001 Udaipur, Rajasthan, India","date":"2020-03-23 07:04:50","readmore":"\/index.php\/testing-facilities\/15-government-laboratories\/101-rnt-medical-college-udaipur","multimedia":""},
    {"id":151,"catid":16,"lat":21.18338,"lng":72.812172,"title":"S. N. GENELAB, Nanpura, Surat","cutDescription":"S. N. GENELAB, 2nd Floor, President Plaza-A, Nanpura, Surat, Gujarat, India 395001","description":"S. N. GENELAB, 2nd Floor, President Plaza-A, Nanpura, Surat, Gujarat, India 395001","street":"2nd Floor, President Plaza-A, Nanpura","city":"Surat","zip":"395001","country":"India","state":"Gujarat","address":"2nd Floor, President Plaza-A, Nanpura, 395001 Surat, Gujarat, India","date":"2020-03-24 08:04:25","readmore":"\/index.php\/testing-facilities\/16-private-laboratories\/151-s-n-genelab-nanpura-surat","multimedia":""},
    {"id":103,"catid":15,"lat":28.00639,"lng":73.328323,"title":"S.P. Medical College & Associated Group of Hospitals, Bikaner","cutDescription":"<p>S.P. Medical College &<br \/>Associated Group of<br \/>Hospitals, Bikaner,<br \/>Rajasthan<\/p><p>\u00a0<\/p><p>\u00a0<\/p><p>S.p.medical collage, PBM<\/p>...","description":"<p>S.P. Medical College &<br \/>Associated Group of<br \/>Hospitals, Bikaner,<br \/>Rajasthan<\/p><p>\u00a0<\/p><p>\u00a0<\/p><p>S.p.medical collage, PBM Hospital, Bikaner, Rajasthan 334001<\/p>","street":"S.p.medical collage, PBM Hospital,  ","city":"Bikaner","zip":" 334001","country":"India","state":"Rajasthan","address":"S.p.medical collage, PBM Hospital,  ,  334001 Bikaner, Rajasthan, India","date":"2020-03-23 07:08:15","readmore":"\/index.php\/testing-facilities\/15-government-laboratories\/103-s-p-medical-college-associated-group-of-hospitals-bikaner","multimedia":""},
    {"id":143,"catid":15,"lat":26.743549,"lng":80.943008,"title":"Sanjay Gandhi Post Graduate Institute, Lucknow","cutDescription":"New PMSSY Rd, Raibareli Rd, Lucknow, Uttar Pradesh 226014","description":"New PMSSY Rd, Raibareli Rd, Lucknow, Uttar Pradesh 226014","street":"New PMSSY Rd, Raibareli Rd","city":"Lucknow","zip":"226014","country":"India","state":"Uttar Pradesh","address":"New PMSSY Rd, Raibareli Rd, 226014 Lucknow, Uttar Pradesh, India","date":"2020-03-23 12:22:34","readmore":"\/index.php\/testing-facilities\/15-government-laboratories\/143-sanjay-gandhi-post-graduate-institute-lucknow","multimedia":""},
    {"id":98,"catid":15,"lat":26.905384,"lng":75.816635,"title":"Sawai Man Singh (SMS) Medical College, Jaipur","cutDescription":"<p>SMS Medical College,<br \/>Jaipur<\/p><p>Jawahar Lal Nehru Marg, Gangawal Park, Adarsh Nagar, Jaipur, Rajasthan<\/p>...","description":"<p>SMS Medical College,<br \/>Jaipur<\/p><p>Jawahar Lal Nehru Marg, Gangawal Park, Adarsh Nagar, Jaipur, Rajasthan 302004<\/p>","street":"Jawahar Lal Nehru Marg, Gangawal Park, Adarsh Nagar, ","city":"Jaipur","zip":"302004","country":"India","state":"Rajasthan ","address":"Jawahar Lal Nehru Marg, Gangawal Park, Adarsh Nagar, , 302004 Jaipur, Rajasthan , India","date":"2020-03-23 07:01:33","readmore":"\/index.php\/testing-facilities\/15-government-laboratories\/98-sawai-man-singh-sms-medical-college-jaipur","multimedia":""},
    {"id":85,"catid":15,"lat":20.472128,"lng":85.889336,"title":"SCB Medical College, Cuttack","cutDescription":"<p>SCB Medical College,<br \/>Cuttack<\/p><p>\u00a0<\/p><p>SCB Medical College, PG Hostel, Cuttack, Odisha 753001<\/p><p>\u00a0<\/p><p>\u00a0<\/p>","description":"<p>SCB Medical College,<br \/>Cuttack<\/p><p>\u00a0<\/p><p>SCB Medical College, PG Hostel, Cuttack, Odisha 753001<\/p><p>\u00a0<\/p><p>\u00a0<\/p>","street":"SCB Medical College, PG Hostel, ","city":"Cuttack, ","zip":"753001","country":"India","state":"Odisha ","address":"SCB Medical College, PG Hostel, , 753001 Cuttack, , Odisha , India","date":"2020-03-23 05:35:26","readmore":"\/index.php\/testing-facilities\/15-government-laboratories\/85-scb-medical-college-cuttack","multimedia":""},
    {"id":212,"catid":15,"lat":22.574972,"lng":88.359772,"title":"School of Tropical Medicine, Kolkata","cutDescription":"108, Chittaranjan Avenue, Kolkata - 700 073, West Bengal","description":"108, Chittaranjan Avenue, Kolkata - 700 073, West Bengal","street":"108, Chittaranjan Avenue","city":"Kolkata","zip":"700 073","country":"India","state":"West Bengal","address":"108, Chittaranjan Avenue, 700 073 Kolkata, West Bengal, India","date":"2020-03-31 05:38:12","readmore":"\/index.php\/testing-facilities\/15-government-laboratories\/212-school-of-tropical-medicine-kolkata","multimedia":""},
    {"id":74,"catid":15,"lat":19.002028,"lng":72.842033,"title":"Seth GS Medical College & KEM Hospital, Mumbai","cutDescription":"Acharya Donde Marg, Parel, Mumbai, Maharashtra 400012","description":"Acharya Donde Marg, Parel, Mumbai, Maharashtra 400012","street":"Acharya Donde Marg, Parel","city":"Mumbai","zip":" 400012","country":"India","state":"Maharashtra ","address":"Acharya Donde Marg, Parel,  400012 Mumbai, Maharashtra , India","date":"2020-03-23 05:11:34","readmore":"\/index.php\/testing-facilities\/15-government-laboratories\/74-seth-gs-medical-college-kem-hospital-mumbai","multimedia":""},
    {"id":60,"catid":15,"lat":13.932601,"lng":75.566864,"title":"Shimoga Institute of Medical Sciences, Shivamogga","cutDescription":"N.H.206, Sagara Road, Shivamogga, Karnataka 577201","description":"N.H.206, Sagara Road, Shivamogga, Karnataka 577201","street":"Sagar Road, ","city":"Shivamogga,","zip":"577201","country":"India","state":" Karnataka ","address":"Sagar Road, , 577201 Shivamogga,,  Karnataka , India","date":"2020-03-22 22:34:17","readmore":"\/index.php\/testing-facilities\/15-government-laboratories\/60-shimoga-institute-of-medical-sciences-shivamogga","multimedia":""},
    {"id":78,"catid":15,"lat":20.863955,"lng":74.760155,"title":"Shree Bhausaheb Hire Govt Medical College, Dhule","cutDescription":null,"description":"<h1 class=\"section-hero-header-title-title GLOBAL__gm2-headline-5\" style=\"background: transparent; border: 0px; font-style: inherit; font-variant: inherit; font-weight: 400; font-size: 1.375rem; line-height: 1.75rem; font-family: 'Google Sans', Roboto, 'Noto Sans Devanagari UI', 'Noto Sans Bengali UI', 'Noto Sans Telugu UI', 'Noto Sans Tamil UI', 'Noto Sans Gujarati UI', 'Noto Sans Kannada UI', 'Noto Sans Malayalam UI', 'Noto Sans Gurmukhi UI', Arial, sans-serif; list-style: none; margin: 0px; outline: 0px; overflow: visible; padding: 0px; vertical-align: baseline;\">Shree Bhausaheb Hire Govt Medical College, Dhule<\/h1>Chakkarbardi, Malegaon Road, Dhule, Maharashtra 424001","street":"Chakkarbardi, Malegaon Road,  ","city":"Dhule,","zip":" 424001","country":"India","state":"Maharashtra","address":"Chakkarbardi, Malegaon Road,  ,  424001 Dhule,, Maharashtra, India","date":"2020-03-23 05:20:50","readmore":"\/index.php\/testing-facilities\/15-government-laboratories\/78-shree-bhausaheb-hire-govt-medical-college-dhule","multimedia":""},
    {"id":5,"catid":15,"lat":16.517401,"lng":80.671303,"title":"Sidhartha Medical College, Vijayawada","cutDescription":"Siddhartha Medical College, Vijayawada NH 16 Service Rd, beside Dr NTR University of Health...","description":"Siddhartha Medical College, Vijayawada NH 16 Service Rd, beside Dr NTR University of Health Sciences, Gunadala, Vijayawada, Andhra Pradesh 520008","street":"NH 16 Service Rd, beside Dr NTR University of Health Sciences","city":"Vijayawada","zip":"520008","country":"India","state":"Andhra Pradesh","address":"NH 16 Service Rd, beside Dr NTR University of Health Sciences, 520008 Vijayawada, Andhra Pradesh, India","date":"2020-03-22 12:29:31","readmore":"\/index.php\/testing-facilities\/15-government-laboratories\/5-sidhartha-medical-college-vijayawada","multimedia":""},
    {"id":13,"catid":15,"lat":24.775801,"lng":92.794914,"title":"Silchar Medical College, Silchar","cutDescription":"Silchar Medical College, Silchar Ghungoor Road, beside Indian Post, Masimpur, Uttar Krishnapur Pt...","description":"Silchar Medical College, Silchar Ghungoor Road, beside Indian Post, Masimpur, Uttar Krishnapur Pt III, Assam 788014","street":"Ghungoor Road, beside Indian Post, Masimpur","city":"Uttar Krishnapur Pt III","zip":"788014","country":"India","state":"Assam","address":"Ghungoor Road, beside Indian Post, Masimpur, 788014 Uttar Krishnapur Pt III, Assam, India","date":"2020-03-22 18:43:54","readmore":"\/index.php\/testing-facilities\/15-government-laboratories\/13-silchar-medical-college-silchar","multimedia":""},
    {"id":172,"catid":16,"lat":28.638811,"lng":77.190071,"title":"Sir ganga ram hospital clinical laboratory services, New Delhi","cutDescription":"Sarhadi Gandhi Marg, Old Rajinder Nagar, Rajinder Nagar, New Delhi, Delhi 110060","description":"Sarhadi Gandhi Marg, Old Rajinder Nagar, Rajinder Nagar, New Delhi, Delhi 110060","street":"Sarhadi Gandhi Marg, Old Rajinder Nagar, Rajinder Nagar","city":"New Delhi","zip":"110060","country":"India","state":"Delhi ","address":"Sarhadi Gandhi Marg, Old Rajinder Nagar, Rajinder Nagar, 110060 New Delhi, Delhi , India","date":"2020-03-26 07:52:31","readmore":"\/index.php\/testing-facilities\/16-private-laboratories\/172-sir-ganga-ram-hospital-clinical-laboratory-services-new-delhi","multimedia":""},
    {"id":111,"catid":16,"lat":19.139215,"lng":73.002266,"title":"Sir H.N. Reliance Foundation Hospital and Research Center, Mumbai","cutDescription":"Reliance Life Sciences Pvt Ltd, <span class=\"LrzXr\"> MIDC, R-282, Thane - Belapur Rd, T.T.C. Industrial Area, Rabale, Navi<\/span>...","description":"Reliance Life Sciences Pvt Ltd, <span class=\"LrzXr\"> MIDC, R-282, Thane - Belapur Rd, T.T.C. Industrial Area, Rabale, Navi Mumbai, Maharashtra 400701<\/span>","street":"MIDC, R-282, Thane - Belapur Rd, T.T.C. Industrial Area, Rabale","city":"Navi Mumbai","zip":"400701 ","country":"India","state":"Maharashtra","address":"MIDC, R-282, Thane - Belapur Rd, T.T.C. Industrial Area, Rabale, 400701  Navi Mumbai, Maharashtra, India","date":"2020-03-23 07:42:21","readmore":"\/index.php\/testing-facilities\/16-private-laboratories\/111-sir-h-n-reliance-foundation-hospital-and-research-center-mumbai","multimedia":""},
    {"id":163,"catid":15,"lat":17.445538,"lng":78.472244,"title":"Sir Ronald Ross of Tropical & Communicable Diseases, Hyderabad","cutDescription":"CGHS Complex, Old Aiport Road, Motilal Nehru Nagar, Begumpet, Hyderabad, Telangana 500016","description":"CGHS Complex, Old Aiport Road, Motilal Nehru Nagar, Begumpet, Hyderabad, Telangana 500016","street":"CGHS Complex, Old Aiport Road, Motilal Nehru Nagar, Begumpet","city":"Hyderabad","zip":"500016","country":"India","state":"Telangana ","address":"CGHS Complex, Old Aiport Road, Motilal Nehru Nagar, Begumpet, 500016 Hyderabad, Telangana , India","date":"2020-03-24 20:38:24","readmore":"\/index.php\/testing-facilities\/15-government-laboratories\/163-sir-ronald-ross-of-tropical-communicable-diseases-hyderabad","multimedia":""},
    {"id":205,"catid":17,"lat":27.346516,"lng":88.603371,"title":"Sir Thutob Namgyal Memorial (STNM), Gangtok","cutDescription":"Sungava, Gangtok, Sikkim 737101","description":"Sungava, Gangtok, Sikkim 737101","street":"Sungava","city":"Gangtok","zip":"737101","country":"India","state":"Sikkim","address":"Sungava, 737101 Gangtok, Sikkim, India","date":"2020-03-30 07:02:29","readmore":"\/index.php\/testing-facilities\/17-collection-sites\/205-sir-thutob-namgyal-memorial-stnm-gangtok","multimedia":""},
    {"id":133,"catid":15,"lat":8.521672,"lng":76.924194,"title":"Sree Chitra Tirunal Institute for Medical Sciences & Technology, Thiruvananthapuram","cutDescription":"Sree Chitra Tirunal Institute for Medical Sciences & Technology, Jai Nagar W Rd, Chalakkuzhi,...","description":"Sree Chitra Tirunal Institute for Medical Sciences & Technology, Jai Nagar W Rd, Chalakkuzhi, Thiruvananthapuram, Kerala 695011","street":"Jai Nagar W Rd, Chalakkuzhi","city":"Thiruvananthapuram","zip":"695011","country":"India","state":"Kerela","address":"Jai Nagar W Rd, Chalakkuzhi, 695011 Thiruvananthapuram, Kerela, India","date":"2020-03-23 10:20:21","readmore":"\/index.php\/testing-facilities\/15-government-laboratories\/133-sree-chitra-tirunal-institute-for-medical-sciences-technology-thiruvananthapuram","multimedia":""},
    {"id":175,"catid":16,"lat":13.023108,"lng":80.111176,"title":"SRI RAMACHANDRA LABORATORY SERVICES, Chennai","cutDescription":"No.1 Ramachandra Nagar Porur, Chennai - 600116 Tamil Nadu, India","description":"No.1 Ramachandra Nagar Porur, Chennai - 600116 Tamil Nadu, India","street":"No.1 Ramachandra Nagar Porur","city":"Chennai","zip":"600116","country":"India","state":"Tamil Nadu","address":"No.1 Ramachandra Nagar Porur, 600116 Chennai, Tamil Nadu, India","date":"2020-03-26 08:07:46","readmore":"\/index.php\/testing-facilities\/16-private-laboratories\/175-sri-ramachandra-laboratory-services-chennai","multimedia":""},
    {"id":4,"catid":15,"lat":13.640438,"lng":79.40374,"title":"Sri Venkateswara Institute of Medical Sciences, Tirupati","cutDescription":"Sri Venkateswara Institute of Medical Sciences, Tirupati, Andhra Pradesh Alipiri Rd, Sri Padmavati...","description":"Sri Venkateswara Institute of Medical Sciences, Tirupati, Andhra Pradesh Alipiri Rd, Sri Padmavati Mahila Visvavidyalayam, Tirupati, Andhra Pradesh 517507","street":"Alipiri Rd, Sri Padmavati Mahila Visvavidyalayam, Tirupati","city":"Tirupati","zip":"517507","country":"India","state":"Andhra Pradesh","address":"Alipiri Rd, Sri Padmavati Mahila Visvavidyalayam, Tirupati, 517507 Tirupati, Andhra Pradesh, India","date":"2020-03-22 10:47:32","readmore":"\/index.php\/testing-facilities\/15-government-laboratories\/4-sri-venkateswara-institute-of-medical-sciences-tirupati","multimedia":""},
    {"id":116,"catid":16,"lat":19.171404,"lng":72.843422,"title":"SRL Diagnostics, Goregaon West","cutDescription":"<span class=\"section-info-text\"><span class=\"widget-pane-link\">SRL Diagnostics, Plot No 1, Prime Square building, Gaiwadi Industrial, estate, Next to Patel<\/span><\/span>...","description":"<span class=\"section-info-text\"><span class=\"widget-pane-link\">SRL Diagnostics, Plot No 1, Prime Square building, Gaiwadi Industrial, estate, Next to Patel Petrol Pump, Opposite Mahesh Nagar, S.V. Road, Goregaon West, Mumbai, Maharashtra 400062<\/span><\/span>","street":"Prime Square building, Gaiwadi Industrial, estate,","city":"Mumbai","zip":"400062","country":"India","state":"Maharashtra","address":"Prime Square building, Gaiwadi Industrial, estate,, 400062 Mumbai, Maharashtra, India","date":"2020-03-23 08:04:10","readmore":"\/index.php\/testing-facilities\/16-private-laboratories\/116-srl-diagnostics-goregaon-west","multimedia":""},
    {"id":127,"catid":16,"lat":28.489103,"lng":77.059502,"title":"SRL Limited","cutDescription":"SRL Limited, GP 26 Sector 18, gurgaon, Haryana, India Pin 122015","description":"SRL Limited, GP 26 Sector 18, gurgaon, Haryana, India Pin 122015","street":"GP 26 Sector 18,","city":" gurgaon","zip":"122015","country":"India","state":"Haryana","address":"GP 26 Sector 18,, 122015  gurgaon, Haryana, India","date":"2020-03-23 09:30:32","readmore":"\/index.php\/testing-facilities\/16-private-laboratories\/127-srl-limited","multimedia":""},
    {"id":199,"catid":18,"lat":13.106272,"lng":80.286674,"title":"Stanley Medical College, Chennai","cutDescription":"No. 1, Old Jail Rd, Old Washermanpet, Chennai, Tamil Nadu 600001","description":"No. 1, Old Jail Rd, Old Washermanpet, Chennai, Tamil Nadu 600001","street":"No. 1, Old Jail Rd, Old Washermanpet","city":"Chennai","zip":"600001","country":"India","state":"Tamil Nadu","address":"No. 1, Old Jail Rd, Old Washermanpet, 600001 Chennai, Tamil Nadu, India","date":"2020-03-30 06:09:43","readmore":"\/index.php\/testing-facilities\/18-government-laboratories-not-supported-by-icmr\/199-stanley-medical-college-chennai","multimedia":""},
    {"id":159,"catid":15,"lat":8.498161,"lng":76.939453,"title":"State Public Health Laboratory, Trivandrum","cutDescription":"Red Cross Road, Near, General Hospital Rd, Rishimangalam, Pattoor, Thiruvananthapuram, Kerala 695024","description":"Red Cross Road, Near, General Hospital Rd, Rishimangalam, Pattoor, Thiruvananthapuram, Kerala 695024","street":"Red Cross Road, Near, General Hospital Rd, Rishimangalam, Pattoor, ","city":"Thiruvananthapuram, ","zip":"695024","country":"India","state":"Kerala ","address":"Red Cross Road, Near, General Hospital Rd, Rishimangalam, Pattoor, , 695024 Thiruvananthapuram, , Kerala , India","date":"2020-03-24 14:06:26","readmore":"\/index.php\/testing-facilities\/15-government-laboratories\/159-state-public-health-laboratory-trivandrum","multimedia":""},
    {"id":119,"catid":16,"lat":28.426413,"lng":77.019768,"title":"Strand Life Sciences, Gurugram","cutDescription":"Strand Life Sciences, <span class=\"section-info-text\"><span class=\"widget-pane-link\">A-17, Info Technology Park, Sector 34, Gurugram, Haryana 122001<\/span><\/span>","description":"Strand Life Sciences, <span class=\"section-info-text\"><span class=\"widget-pane-link\">A-17, Info Technology Park, Sector 34, Gurugram, Haryana 122001<\/span><\/span>","street":" A-17, Info Technology Park, Sector 34,","city":"Gurugram","zip":"122001","country":"India","state":"Haryana","address":" A-17, Info Technology Park, Sector 34,, 122001 Gurugram, Haryana, India","date":"2020-03-23 08:22:15","readmore":"\/index.php\/testing-facilities\/16-private-laboratories\/119-strand-life-sciences-gurugram","multimedia":""},
    {"id":112,"catid":16,"lat":19.137468,"lng":72.823578,"title":"SUBURBAN DIAGNOSTICS (INDIA) PVT. LTD","cutDescription":"2nd Floor Aston, Shastri Nagar, Andheri (W), Mumbai, Maharashtra, India  400053","description":"2nd Floor Aston, Shastri Nagar, Andheri (W), Mumbai, Maharashtra, India  400053","street":"2nd Floor Aston, Shastri Nagar","city":" Andheri (W), Mumbai","zip":"400053","country":"India","state":"Maharashtra","address":"2nd Floor Aston, Shastri Nagar, 400053  Andheri (W), Mumbai, Maharashtra, India","date":"2020-03-23 07:50:03","readmore":"\/index.php\/testing-facilities\/16-private-laboratories\/112-suburban-diagnostics-india-pvt-ltd","multimedia":""},
    {"id":144,"catid":16,"lat":23.019835,"lng":72.557091,"title":"Supratech Micropath Laboratory & Research Institute Pvt. Ltd., Ahmedabad","cutDescription":"Supratech Micropath Laboratory & Research Institute Pvt. Ltd., Neuberg Supratech, Ground Floor,...","description":"Supratech Micropath Laboratory & Research Institute Pvt. Ltd., Neuberg Supratech, Ground Floor, Kedar Builiding, Opp. Krupa petrol Pump Parimal garden, Gujarat 380006","street":"Kedar Builiding, Opp. Krupa petrol Pump","city":"Ahmedabad","zip":"380006","country":"India","state":"Gujarat","address":"Kedar Builiding, Opp. Krupa petrol Pump, 380006 Ahmedabad, Gujarat, India","date":"2020-03-23 12:28:19","readmore":"\/index.php\/testing-facilities\/16-private-laboratories\/144-supratech-micropath-laboratory-research-institute-pvt-ltd-ahmedabad","multimedia":""},
    {"id":190,"catid":16,"lat":19.004614,"lng":72.843033,"title":"Tata Memorial Centre Diagnostic Services, Tata Memorial Hospital, Mumbai","cutDescription":"Dept. of Microbiology & Serology, 6th Floor, Anexe Building, Tata Memorial Hospital, Dr. E. Borges...","description":"Dept. of Microbiology & Serology, 6th Floor, Anexe Building, Tata Memorial Hospital, Dr. E. Borges Road, Parel, Mumbai 400012","street":"Dr Ernest Borges Road, Parel","city":"Mumbai","zip":"400012","country":"India","state":"Maharashtra","address":"Dr Ernest Borges Road, Parel, 400012 Mumbai, Maharashtra, India","date":"2020-03-28 07:35:54","readmore":"\/index.php\/testing-facilities\/16-private-laboratories\/190-tata-memorial-centre-diagnostic-services-tata-memorial-hospital-mumbai","multimedia":""},
    {"id":214,"catid":16,"lat":17.442057,"lng":78.497147,"title":"The Department of Laboratory Medicine, Yashoda Hospital","cutDescription":"9th Floor, 1-1-156 & 157, Alexander Road, S. P. Road, Secunderabad, Telangana 500003","description":"9th Floor, 1-1-156 & 157, Alexander Road, S. P. Road, Secunderabad, Telangana 500003","street":"9th Floor, 1-1-156 & 157, Alexander Road, S. P. Road","city":"Secunderabad","zip":"500003","country":"","state":"Telangana","address":"9th Floor, 1-1-156 & 157, Alexander Road, S. P. Road, 500003 Secunderabad, Telangana, ","date":"2020-03-31 07:45:51","readmore":"\/index.php\/testing-facilities\/16-private-laboratories\/214-the-department-of-laboratory-medicine-yashoda-hospital","multimedia":""},
    {"id":110,"catid":16,"lat":19.067995,"lng":73.003891,"title":"Thyrocare Technologies Limited","cutDescription":"Thyrocare Technologies Limited, D-37\/1 MIDC Turbhe Opp Sandoz, MIDC Industrial Area, Sanpada, Navi...","description":"Thyrocare Technologies Limited, D-37\/1 MIDC Turbhe Opp Sandoz, MIDC Industrial Area, Sanpada, Navi Mumbai, Maharashtra 400703","street":"D-37\/1 MIDC Turbhe","city":"Navi Mumbai","zip":"400703","country":"India","state":"Maharashtra","address":"D-37\/1 MIDC Turbhe, 400703 Navi Mumbai, Maharashtra, India","date":"2020-03-23 07:37:15","readmore":"\/index.php\/testing-facilities\/16-private-laboratories\/110-thyrocare-technologies-limited","multimedia":""},
    {"id":207,"catid":17,"lat":27.103872,"lng":93.691101,"title":"Tomo Riba Institute Health and Medical Sciences (TRIHMS), Naharlagun","cutDescription":"Old Assembly Complex, Naharlagun, Papumpare District, Arunachal Pradesh 791110","description":"Old Assembly Complex, Naharlagun, Papumpare District, Arunachal Pradesh 791110","street":"Old Assembly Complex","city":"Naharlagun","zip":"791110","country":"India","state":"Arunachal Pradesh ","address":"Old Assembly Complex, 791110 Naharlagun, Arunachal Pradesh , India","date":"2020-03-30 07:15:53","readmore":"\/index.php\/testing-facilities\/17-collection-sites\/207-tomo-riba-institute-health-and-medical-sciences-trihms-naharlagun","multimedia":""},
    {"id":114,"catid":16,"lat":22.113466,"lng":71.736961,"title":"Unipath Speciality Laboratory Limited, Ahmedabad","cutDescription":"Unipath Speciality Laboratory Limited,, <span class=\"section-info-text\"><span class=\"widget-pane-link\">102, 1st Floor, Sanoma Plaza, Sheth Mangald Road, Opp.<\/span><\/span>...","description":"Unipath Speciality Laboratory Limited,, <span class=\"section-info-text\"><span class=\"widget-pane-link\">102, 1st Floor, Sanoma Plaza, Sheth Mangald Road, Opp. Parimal Garden, Ellisbridge, Ahmedabad, Gujarat 380006<\/span><\/span>","street":"102, 1st Floor, Sanoma Plaza, Sheth Mangald Road","city":"Ahmedabad","zip":"380006","country":"India","state":"Gujarat","address":"102, 1st Floor, Sanoma Plaza, Sheth Mangald Road, 380006 Ahmedabad, Gujarat, India","date":"2020-03-23 07:56:43","readmore":"\/index.php\/testing-facilities\/16-private-laboratories\/114-unipath-speciality-laboratory-limited-ahmedabad","multimedia":""},
    {"id":38,"catid":15,"lat":26.960838,"lng":78.958397,"title":"Uttar Pradesh University of Medical Sciences, Saifai, Etawah","cutDescription":"Off, Kurawali - Mainpuri - Etawah Rd, Saifai, Uttar Pradesh 206130","description":"Off, Kurawali - Mainpuri - Etawah Rd, Saifai, Uttar Pradesh 206130","street":"Off, Kurawali - Mainpuri - Etawah Rd","city":"Saifai","zip":" 206130","country":"India","state":"Uttar Pradesh","address":"Off, Kurawali - Mainpuri - Etawah Rd,  206130 Saifai, Uttar Pradesh, India","date":"2020-03-22 20:43:33","readmore":"\/index.php\/testing-facilities\/15-government-laboratories\/38-uttar-pradesh-university-of-medical-sciences-saifai-etawah","multimedia":""},
    {"id":193,"catid":15,"lat":17.665312,"lng":75.909637,"title":"V. M. Govt. Medical College, Solapur.","cutDescription":"Opp. District Court, Solapur, Maharashtra 413003, India","description":"Opp. District Court, Solapur, Maharashtra 413003, India","street":"Opp. District Court","city":"Solapur","zip":"413003","country":"India","state":"Maharashtra","address":"Opp. District Court, 413003 Solapur, Maharashtra, India","date":"2020-03-28 11:22:06","readmore":"\/index.php\/testing-facilities\/15-government-laboratories\/193-v-m-govt-medical-college-solapur","multimedia":""},
    {"id":148,"catid":16,"lat":17.404165,"lng":78.477684,"title":"Vijaya Diagnostic Centre Pvt. Ltd, Hyderabad","cutDescription":"Vijaya Diagnostic Centre Pvt. Ltd, 3-6-16 & 17, Street No.19, opp. Lane to Tanishq, Chandra Nagar,...","description":"Vijaya Diagnostic Centre Pvt. Ltd, 3-6-16 & 17, Street No.19, opp. Lane to Tanishq, Chandra Nagar, Himayatnagar, Hyderabad, Telangana 500029","street":"3-6-16 & 17, Street No.19","city":"Hyderabad","zip":"500029","country":"India","state":"Telangana","address":"3-6-16 & 17, Street No.19, 500029 Hyderabad, Telangana, India","date":"2020-03-24 06:22:48","readmore":"\/index.php\/testing-facilities\/16-private-laboratories\/148-vijaya-diagnostic-centre-pvt-ltd-hyderabad","multimedia":""},
    {"id":149,"catid":16,"lat":17.470873,"lng":78.600082,"title":"Vimta Labs Ltd., Hyderabad,","cutDescription":"Vimta Labs Ltd., Plot No. 142, Phase 2, IDA Cherlapally, Hyderabad, Telangana, India 500051","description":"Vimta Labs Ltd., Plot No. 142, Phase 2, IDA Cherlapally, Hyderabad, Telangana, India 500051","street":" Plot No. 142, Phase 2, IDA Cherlapally","city":"Hyderabad","zip":"500051","country":"India","state":"Telangana","address":" Plot No. 142, Phase 2, IDA Cherlapally, 500051 Hyderabad, Telangana, India","date":"2020-03-24 06:26:18","readmore":"\/index.php\/testing-facilities\/16-private-laboratories\/149-vimta-labs-ltd-hyderabad","multimedia":""},
    {"id":208,"catid":16,"lat":13.002532,"lng":80.246841,"title":"Y. R. Gaitonde Centre for AIDS Research and Education (YRG Care), Chennai","cutDescription":"Division of Molecular Biology & Genotyping, YRG CARE Infectious Diseases Laboratory VHS Hospital...","description":"Division of Molecular Biology & Genotyping, YRG CARE Infectious Diseases Laboratory VHS Hospital Campus, Rajiv Gandhi Road, Tharamani, Chennai, Tamil Nadu 600113","street":"SH 49A, Pallipattu, Tharamani","city":"Chennai","zip":"600113","country":"India","state":"Tamil Nadu","address":"SH 49A, Pallipattu, Tharamani, 600113 Chennai, Tamil Nadu, India","date":"2020-03-30 10:06:22","readmore":"\/index.php\/testing-facilities\/16-private-laboratories\/208-y-r-gaitonde-centre-for-aids-research-and-education-yrg-care-chennai","multimedia":""}]}